stop_id,stop_name,stop_lat,stop_lon,location_type,parent_station,platform_code
9021014035477000,Ranstadsverket,58.313051,13.709136,1,,
9021014035478000,Stommens vägskäl,58.330380,13.785539,1,,
9021014035496000,Berguvsvägen,58.364278,13.818921,1,,
9021014035497000,Orrvägen,58.366347,13.819245,1,,
9021014035498000,Bruntorp,58.347410,14.112507,1,,
9021014035500000,Astervägen,58.413553,13.870524,1,,
9021014035501000,Krokebro,58.446442,13.941617,1,,
9021014035510000,Skolgatan,58.525417,13.760380,1,,
9021014035511000,Lerdala Sjövägen,58.474696,13.706026,1,,
9021014035512000,Högsböla,58.503963,13.777731,1,,
9021014035513000,Källbacka,58.482056,13.744396,1,,
9021014035514000,Lerbäck,58.480059,13.730336,1,,
9021014035517000,Belleforsvägen,58.568721,14.010001,1,,
9021014035520000,Daltorp,58.437757,13.985042,1,,
9021014035521000,Korsbacken,58.411812,13.977590,1,,
9021014035522000,Horsås rondellen,58.421261,13.889162,1,,
9021014035523000,Varola skola,58.337037,13.976676,1,,
9021014035524000,Trädgårdsstaden väg 200,58.423408,13.898460,1,,
9021014035526000,Skogens förskola,58.341604,13.852237,1,,
9021014035527000,Basvägen,58.341448,13.845836,1,,
9021014035528000,Trafikplats Skultorp,58.340711,13.860824,1,,
9021014035529000,Skultorp väg 26,58.340579,13.864159,1,,
9021014035532000,Lövkullevägen,58.400700,13.877677,1,,
9021014035535000,Smedsgården,58.478996,13.722812,1,,
9021014035536000,Runneberg,58.438100,13.976245,1,,
9021014035537000,Jakobstorp,58.439282,14.008911,1,,
9021014035538000,Lindåsen,58.430358,14.025773,1,,
9021014035539000,Linoljedammen,58.418893,13.874085,1,,
9021014035540000,Malörtsvägen,58.415752,13.875418,1,,
9021014035542000,Brandstorpsvägen,58.392491,13.823675,1,,
9021014035546000,Melldala södra,58.501505,13.741866,1,,
9021014035552000,Volvobron,58.378264,13.863615,1,,
9021014035554000,Falkvägen,58.389330,13.829681,1,,
9021014035555000,Stallsiken,58.410005,13.875533,1,,
9021014035556000,Trollberget,58.492151,13.775843,1,,
9021014035557000,Östentorp,58.476071,13.898561,1,,
9021014035560000,Tingsrätten,58.387492,13.844897,1,,
9021014035561000,Lassagårdsgatan,58.410001,13.887496,1,,
9021014035563000,Käpplunda vårdcentrum,58.400295,13.840286,1,,
9021014035564000,Lerdala skola,58.476706,13.711217,1,,
9021014035565000,Sandbacken,58.433560,13.923028,1,,
9021014035566000,Stallsiken norra,58.412808,13.877703,1,,
9021014035567000,Vagnsbodsvägen,58.335530,13.814552,1,,
9021014035569000,Jonstorpsgatan,58.412957,13.884510,1,,
9021014035570000,Frostaliden,58.409838,13.850635,1,,
9021014035571000,Aspö,58.414518,13.867823,1,,
9021014035572000,Klagstorpsvägen,58.342323,13.838291,1,,
9021014035573000,Trädgårdsstadens skola,58.413469,13.890622,1,,
9021014035574000,Vilkmansgatan,58.416348,13.898492,1,,
9021014035575000,Bovieran,58.361397,13.819154,1,,
9021014035576000,Stallsiken Västra,58.407510,13.873815,1,,
9021014035577000,Ängsmarksgatan,58.419907,13.900812,1,,
9021014035578000,Stallsiken södra,58.404201,13.870310,1,,
9021014035778000,Odlingsgatan,58.419859,13.891140,1,,
9021014036010000,Tibro busstation,58.425286,14.160836,1,,
9021014036100000,Lilla Marhult,58.490586,14.373598,1,,
9021014036101000,Stora Marhult,58.479110,14.345302,1,,
9021014036102000,Björkhult,58.474558,14.329870,1,,
9021014036103000,Ottostorp,58.444673,14.186638,1,,
9021014036104000,Blombacka,58.454306,14.214604,1,,
9021014036106000,Ransbergs kyrka,58.457943,14.250581,1,,
9021014036107000,Lunnekullevägen,58.459699,14.262147,1,,
9021014036108000,Perstorps gård,58.464246,14.279981,1,,
9021014036109000,Bjurslingan,58.465289,14.284999,1,,
9021014036110000,Fagersanna,58.468398,14.298307,1,,
9021014036111000,Sågvägen,58.469620,14.303289,1,,
9021014036112000,Fagersanna väg 49,58.465557,14.296187,1,,
9021014036116000,Sälgen,58.426415,14.150844,1,,
9021014036117000,Gymnasiegatan,58.419429,14.160787,1,,
9021014036118000,Verkstadsgatan,58.416675,14.157173,1,,
9021014036119000,Ängsätragatan,58.405802,14.150912,1,,
9021014036120000,Hörnebo,58.406186,14.156003,1,,
9021014036121000,Ransbergs skola,58.458345,14.256314,1,,
9021014036123000,Bränningen,58.417505,14.117712,1,,
9021014036124000,Mickelstorp,58.417348,14.110492,1,,
9021014036125000,Katerydsvägen,58.437932,14.175968,1,,
9021014036126000,Motorstadion,58.450599,14.199095,1,,
9021014036129000,Marhult,58.485607,14.356536,1,,
9021014036130000,Smedjegatan,58.422040,14.167231,1,,
9021014036131000,Ängsplan,58.420114,14.172139,1,,
9021014036132000,Brittgården,58.418345,14.176460,1,,
9021014036134000,Katrineberg,58.412817,14.179943,1,,
9021014036139000,Norra vägen,58.429797,14.159736,1,,
9021014036140000,Gymnasiegatan södra,58.412024,14.166937,1,,
9021014036142000,Fågelviksleden södra,58.413025,14.153888,1,,
9021014036145000,Fredriks gata,58.403957,14.153181,1,,
9021014036146000,Västanå väg 49,58.425239,14.140137,1,,
9021014036154000,Tidåkra,58.420941,14.130261,1,,
9021014036155000,Ransbergsvägen,58.457026,14.227808,1,,
9021014036156000,Nybygget,58.416706,14.095821,1,,
9021014036162000,Betulavägen,58.463396,14.274170,1,,
9021014036164000,Stenbacken,58.471959,14.319118,1,,
9021014036167000,Bråbacka,58.458072,14.237382,1,,
9021014037001000,Lidköpings resecentrum,58.504478,13.164200,1,,
9021014037003000,Nya stadens torg,58.503855,13.159015,1,,
9021014037004000,Torggatan,58.505612,13.158133,1,,
9021014037010000,Lidköpings resec (tåg),58.504548,13.164711,1,,
9021014037100000,Spiken,58.690086,13.200776,1,,
9021014037101000,Spiken södra,58.683731,13.198568,1,,
9021014037102000,Nolgården,58.673409,13.193409,1,,
9021014037103000,Ekebo,58.664130,13.185750,1,,
9021014037104000,Ekeboliden,58.661798,13.178423,1,,
9021014037105000,Läckö slott,58.673652,13.213420,1,,
9021014037107000,Siggesten,58.662697,13.194359,1,,
9021014037108000,Källedal,58.658101,13.172979,1,,
9021014037109000,Otterstad,58.654208,13.163943,1,,
9021014037113000,Granvik,58.676615,13.153451,1,,
9021014037114000,Källsbäck,58.680807,13.155075,1,,
9021014037115000,Trelle,58.685351,13.150004,1,,
9021014037116000,Sjövik,58.687696,13.140062,1,,
9021014037117000,Nore,58.687093,13.133780,1,,
9021014037118000,Naven,58.679643,13.126778,1,,
9021014037119000,Lillesjö,58.676647,13.120246,1,,
9021014037122000,Sunnerstagården,58.651516,13.131698,1,,
9021014037124000,Korsvägen,58.640896,13.145206,1,,
9021014037127000,Ulleredsbro,58.626501,13.134997,1,,
9021014037128000,Ullerängen,58.621669,13.127058,1,,
9021014037129000,Sjöskogen,58.618179,13.124920,1,,
9021014037130000,Klastorp,58.612352,13.121427,1,,
9021014037131000,Torsängen,58.623793,13.143409,1,,
9021014037133000,Djurgården,58.618993,13.152618,1,,
9021014037134000,Öboängen,58.614123,13.158780,1,,
9021014037135000,Loneberg,58.608236,13.154803,1,,
9021014037136000,Hildeberg,58.601644,13.147440,1,,
9021014037137000,Jönslunda,58.597099,13.146252,1,,
9021014037140000,Filsbäck,58.492248,13.249443,1,,
9021014037141000,Klovet,58.491723,13.233478,1,,
9021014037145000,Sävare norra,58.461926,13.254516,1,,
9021014037146000,Sävare kyrka,58.458063,13.257141,1,,
9021014037148000,Blåbärsvägen,58.449573,13.255710,1,,
9021014037150000,Vinninga väg 49,58.448037,13.245248,1,,
9021014037151000,Fogdängen,58.457216,13.233289,1,,
9021014037152000,Bärnagården,58.439379,13.268464,1,,
9021014037153000,Hålvägen,58.434142,13.284497,1,,
9021014037154000,Ardalavägen,58.431478,13.292249,1,,
9021014037155000,Linjan,58.429938,13.306179,1,,
9021014037156000,Helledal,58.427460,13.326763,1,,
9021014037157000,Violvägen,58.452785,13.268696,1,,
9021014037158000,Prästkragsvägen,58.456176,13.263062,1,,
9021014037160000,Sågen,58.592739,13.146052,1,,
9021014037161000,Solbacken,58.589720,13.142874,1,,
9021014037162000,Sunnervalla,58.578196,13.128744,1,,
9021014037163000,Önnersgården,58.575775,13.126603,1,,
9021014037164000,Riddaregården,58.585831,13.118840,1,,
9021014037165000,Kyrkhagen,58.578375,13.120685,1,,
9021014037166000,Tolsjö,58.561064,13.117659,1,,
9021014037167000,Tolsjöhemmet,58.558116,13.115702,1,,
9021014037168000,Finneboden,58.548044,13.114404,1,,
9021014037169000,Söne,58.532529,12.969979,1,,
9021014037170000,Skalunda kyrka,58.550132,13.008646,1,,
9021014037171000,Rackeby bygdegård,58.562556,13.019700,1,,
9021014037172000,Rackeby,58.571502,13.034226,1,,
9021014037173000,Gösslunda,58.549469,13.080162,1,,
9021014037174000,Gösslunda skola,58.541904,13.098840,1,,
9021014037175000,Ledet,58.477965,12.840405,1,,
9021014037176000,Lindhem,58.478862,12.853214,1,,
9021014037177000,Kedumstorp,58.480152,12.864834,1,,
9021014037178000,Kambo,58.480675,12.876844,1,,
9021014037179000,Ekekullen,58.466027,12.831484,1,,
9021014037180000,Tådene,58.460249,12.849549,1,,
9021014037181000,Tranum,58.457415,12.857368,1,,
9021014037182000,Rättaregården,58.459229,12.874623,1,,
9021014037183000,Gunnarsgården,58.463274,12.881254,1,,
9021014037184000,Aggetorp,58.470531,12.892015,1,,
9021014037185000,Norra Kedum,58.481963,12.899959,1,,
9021014037186000,Marbogården,58.488711,12.911549,1,,
9021014037187000,Storegården,58.493917,12.920678,1,,
9021014037188000,Källstorp,58.503525,12.938767,1,,
9021014037189000,Granhagen,58.502711,12.951276,1,,
9021014037190000,Halvfara,58.502747,12.963701,1,,
9021014037191000,Hästhagen,58.503047,12.981002,1,,
9021014037192000,Skattegården,58.505196,12.991435,1,,
9021014037193000,Örslösa,58.507558,13.004655,1,,
9021014037195000,Månslunda,58.510302,13.022302,1,,
9021014037196000,Höberga,58.510464,13.034585,1,,
9021014037197000,Karlberg,58.511922,13.048924,1,,
9021014037198000,Björnegården,58.515925,13.066456,1,,
9021014037199000,Härebacka,58.518637,13.077159,1,,
9021014037200000,Närebo,58.521578,13.099700,1,,
9021014037201000,Tubbetorpsvägen,58.541729,12.994603,1,,
9021014037202000,Råda kyrka,58.496715,13.090850,1,,
9021014037203000,Kockgården,58.473810,13.138738,1,,
9021014037204000,Mjölnaregården,58.468022,13.143571,1,,
9021014037205000,Flygplatsen,58.461516,13.153377,1,,
9021014037206000,Stommen,58.455502,13.156812,1,,
9021014037208000,Norra Härene,58.438266,13.162099,1,,
9021014037209000,Lovenevägen,58.432342,13.158708,1,,
9021014037210000,Torpa,58.426665,13.161213,1,,
9021014037211000,Flöje,58.420714,13.159109,1,,
9021014037212000,Kättorp,58.411514,13.162756,1,,
9021014037213000,Resville,58.400622,13.160636,1,,
9021014037214000,Sällagården,58.393926,13.154791,1,,
9021014037215000,Kristinedal,58.390548,13.152265,1,,
9021014037216000,Fornbyn,58.385897,13.149343,1,,
9021014037217000,Saleby,58.380587,13.147432,1,,
9021014037218000,Saleby affär,58.373501,13.147564,1,,
9021014037229000,Axtorp,58.469043,13.087722,1,,
9021014037230000,Bostorp,58.459663,13.083397,1,,
9021014037231000,Kampegården,58.453755,13.078816,1,,
9021014037232000,Tomten Lovene,58.439675,13.063119,1,,
9021014037233000,Lovene gård,58.437245,13.056931,1,,
9021014037234000,Lovene station,58.440878,13.047668,1,,
9021014037235000,Slätten,58.418167,13.032419,1,,
9021014037236000,Domö,58.398504,13.015734,1,,
9021014037237000,Bryne,58.390322,12.997956,1,,
9021014037238000,Torstensgården,58.384536,12.989919,1,,
9021014037239000,Parkgatan,58.379997,12.976101,1,,
9021014037241000,Badsjön,58.374812,12.970891,1,,
9021014037242000,Ambjörnsgården,58.369546,12.966833,1,,
9021014037243000,Björksäter,58.480102,13.091323,1,,
9021014037244000,Siggetorp,58.474222,13.069999,1,,
9021014037245000,Mellby Fyrkanten,58.463852,13.040805,1,,
9021014037246000,Roslätt,58.458222,13.032153,1,,
9021014037247000,Mellby kyrka,58.453861,13.023724,1,,
9021014037248000,Mellby,58.450214,13.017930,1,,
9021014037249000,Katrineberg,58.447964,13.007809,1,,
9021014037250000,Bromaden,58.448784,12.986152,1,,
9021014037251000,Gillstad östra,58.444074,12.965533,1,,
9021014037252000,Gillstad,58.440978,12.958344,1,,
9021014037254000,Västergården,58.438671,12.937165,1,,
9021014037255000,Nyhagen,58.434050,12.905932,1,,
9021014037256000,Lavad kyrka,58.425034,12.880487,1,,
9021014037257000,Lavad skola väg 44,58.419364,12.867985,1,,
9021014037259000,Häggesled,58.407659,12.915595,1,,
9021014037261000,Gillstad väg 44,58.441897,12.955156,1,,
9021014037262000,Råda väg 44,58.484596,13.123141,1,,
9021014037267000,Brottarvägen,58.524143,13.113438,1,,
9021014037269000,Stenhammar park,58.534571,13.115763,1,,
9021014037272000,Åsen,58.556704,13.070191,1,,
9021014037274000,Jutegården väg 49,58.463350,13.222798,1,,
9021014037279000,Furuhäll,58.533395,13.121358,1,,
9021014037281000,Lingebackevägen,58.530396,13.115266,1,,
9021014037282000,Fröjdegårdsvägen,58.528861,13.113545,1,,
9021014037287000,Tofta industriområde,58.522147,13.123093,1,,
9021014037288000,Plastgatan,58.518643,13.122456,1,,
9021014037289000,Bäckvägen,58.519019,13.129785,1,,
9021014037291000,Skogsvägen,58.525622,13.127956,1,,
9021014037293000,Skogshyddan,58.530884,13.127161,1,,
9021014037294000,Timmervägen,58.517242,13.131116,1,,
9021014037302000,Missionskyrkan,58.502033,13.152193,1,,
9021014037303000,Ågårdsgatan,58.502984,13.148402,1,,
9021014037304000,Rudenschöldsgatan,58.503843,13.145044,1,,
9021014037305000,De la Gardievägen,58.505325,13.139439,1,,
9021014037306000,Nonnens väg,58.505987,13.136778,1,,
9021014037307000,Lunnelidsvägen,58.506728,13.133958,1,,
9021014037308000,Gränsvägen,58.503991,13.127409,1,,
9021014037311000,Björnvägen,58.495893,13.112396,1,,
9021014037312000,Skattegårdsvägen,58.493894,13.110307,1,,
9021014037313000,Skogsstigen,58.492166,13.107003,1,,
9021014037315000,Bräddegården,58.492821,13.099092,1,,
9021014037317000,Råda skola,58.495368,13.093961,1,,
9021014037318000,Stadsträdgården,58.500794,13.153529,1,,
9021014037320000,Sjukhuset Lidköping,58.499027,13.151854,1,,
9021014037321000,Idrottens hus,58.495350,13.147929,1,,
9021014037322000,Arenan,58.493900,13.145826,1,,
9021014037323000,Ågårdsskogens vårdcentral,58.492899,13.137437,1,,
9021014037324000,Alebäcksgatan,58.490882,13.145796,1,,
9021014037325000,Nylyckegatan,58.487711,13.143356,1,,
9021014037326000,Annelystgatan,58.486178,13.142339,1,,
9021014037329000,Liegatan,58.483905,13.147262,1,,
9021014037330000,Bussgatan,58.482372,13.151871,1,,
9021014037331000,Stubbgatan,58.481266,13.153044,1,,
9021014037332000,Vippgatan,58.480350,13.150553,1,,
9021014037333000,Högatan Majåker,58.477775,13.150140,1,,
9021014037334000,Ladugatan,58.476176,13.147068,1,,
9021014037335000,Nyhemsgatan,58.476439,13.142904,1,,
9021014037336000,Skylgatan,58.478060,13.138822,1,,
9021014037337000,Olofsbergsgatan,58.480479,13.138386,1,,
9021014037338000,Kockgårdsgatan,58.481770,13.138180,1,,
9021014037339000,Majåker,58.478476,13.136554,1,,
9021014037341000,Gamla stadens torg,58.502866,13.161452,1,,
9021014037343000,Stadshuset,58.502083,13.164479,1,,
9021014037344000,Tunnbindaregatan,58.501242,13.167870,1,,
9021014037345000,Husabygatan,58.499953,13.167559,1,,
9021014037347000,Solhaga,58.496934,13.160012,1,,
9021014037348000,Härenegatan,58.493308,13.156478,1,,
9021014037351000,Margretelund,58.494764,13.169031,1,,
9021014037352000,Annagatan,58.490875,13.167844,1,,
9021014037353000,Härjevadsgatan,58.488521,13.171569,1,,
9021014037354000,Östra Margretelund,58.491903,13.181396,1,,
9021014037366000,Campingen,58.513291,13.137421,1,,
9021014037367000,Ågårdsskogen,58.490805,13.139881,1,,
9021014037369000,Kartåsplan,58.499670,13.172276,1,,
9021014037370000,Rudenschöldskolan östra,58.503296,13.150119,1,,
9021014037372000,Dalängskolan,58.507795,13.130777,1,,
9021014037375000,Järpås station,58.379044,12.970340,1,,
9021014037376000,Filsbäck station,58.493179,13.247252,1,,
9021014037377000,Filsbäck väg 44,58.478075,13.235895,1,,
9021014037381000,Östbygatan Guldvingen,58.493622,13.165178,1,,
9021014037384000,Sofiagatan,58.488438,13.179002,1,,
9021014037386000,Framnäs city,58.508274,13.147076,1,,
9021014037387000,Änghagen,58.495999,13.181339,1,,
9021014037390000,Förstadsvägen,58.511802,13.139457,1,,
9021014037392000,Storeberg,58.472596,12.823104,1,,
9021014037394000,Tolsjö norra,58.568278,13.118286,1,,
9021014037396000,Kartåsen,58.490939,13.191980,1,,
9021014037398000,Lilla Svenstorp,58.463540,12.805713,1,,
9021014037399000,Högesten,58.458417,12.797220,1,,
9021014037400000,Frielsberg,58.455385,12.792250,1,,
9021014037401000,Hallebo,58.452729,12.786212,1,,
9021014037402000,Friels kyrka,58.450470,12.778710,1,,
9021014037404000,Stallmästargården,58.439503,12.694946,1,,
9021014037405000,Kansliet,58.440709,12.695536,1,,
9021014037406000,Markan,58.442263,12.701055,1,,
9021014037407000,Brandstationen,58.441612,12.704798,1,,
9021014037408000,F7 vakten,58.436740,12.719285,1,,
9021014037409000,Tun,58.430009,12.736456,1,,
9021014037411000,Karaby,58.410523,12.718309,1,,
9021014037412000,Kroksbo,58.402616,12.715226,1,,
9021014037413000,Källeråsen,58.360918,12.955961,1,,
9021014037414000,Berga,58.343167,13.164017,1,,
9021014037415000,Per Svensgården,58.341565,13.127864,1,,
9021014037416000,Lanna,58.346628,13.128843,1,,
9021014037417000,Erik Larsgården,58.351096,13.130264,1,,
9021014037418000,Lanna skola,58.355567,13.134420,1,,
9021014037427000,Åkerhus,58.426067,13.041397,1,,
9021014037430000,Kleversbergen,58.647642,13.155774,1,,
9021014037431000,Låkälla,58.662491,13.155146,1,,
9021014037432000,Eke,58.670411,13.152417,1,,
9021014037433000,Traneberg,58.662293,13.114208,1,,
9021014037434000,Vänsjö,58.648009,13.139486,1,,
9021014037435000,Senäte,58.634876,13.139564,1,,
9021014037436000,Alebäck,58.475233,13.206473,1,,
9021014037437000,Vigrum,58.451473,13.159628,1,,
9021014037438000,Halmstad,58.448012,13.160734,1,,
9021014037439000,Sörliden,58.422824,12.926635,1,,
9021014037440000,Broholm,58.411300,12.844590,1,,
9021014037441000,Askeslättsvägen,58.502420,13.122584,1,,
9021014037443000,Renvägen,58.499367,13.114716,1,,
9021014037444000,Hagen,58.438814,12.755834,1,,
9021014037445000,Jutegården,58.462778,13.229513,1,,
9021014037448000,Stenhammarskolan,58.533649,13.119661,1,,
9021014037449000,Bergeksvägen,58.536241,13.119969,1,,
9021014037450000,Finnebodavägen,58.539564,13.123605,1,,
9021014037451000,Tuvemossevägen,58.542441,13.126836,1,,
9021014037453000,Rådagatan,58.501947,13.136940,1,,
9021014037455000,Sköldmögatan,58.485305,13.140995,1,,
9021014037456000,Badhuset,58.496629,13.146883,1,,
9021014037457000,Sara Videbäcksgatan,58.506232,13.141931,1,,
9021014037458000,Framnäsvägen,58.507684,13.142936,1,,
9021014037459000,Drömstan,58.508656,13.139314,1,,
9021014037460000,Skogvaktarevägen,58.512396,13.135803,1,,
9021014037461000,Ankaret,58.537094,13.124235,1,,
9021014037462000,Vänerblick,58.535861,13.131499,1,,
9021014037542000,Trestegsgatan,58.498876,13.137669,1,,
9021014037543000,Björkhaga,58.378038,12.970928,1,,
9021014037544000,Lidåkersgatan,58.491640,13.161044,1,,
9021014037546000,Tyskagården,58.362882,13.143215,1,,
9021014037547000,Stafettgatan,58.498352,13.141198,1,,
9021014037550000,Entorpsvägen,58.678551,13.197490,1,,
9021014037551000,Wennerbergskolan,58.499117,13.162472,1,,
9021014037552000,Lidåkerskolan,58.490327,13.158436,1,,
9021014037553000,Sjölunda skola,58.544005,13.129347,1,,
9021014037554000,Sjölunda äng,58.546488,13.137618,1,,
9021014037556000,Lilla Källstorp,58.500757,12.929748,1,,
9021014037557000,Hulan Kållandsö,58.658943,13.123491,1,,
9021014037901000,Lidbeckska huset,58.502807,13.160442,1,,
9021014037999000,Lidköping Depå,58.504584,13.176690,1,,
9021014038000000,Skara busstation,58.383243,13.439059,1,,
9021014038104000,Flämslätt,58.461430,13.679722,1,,
9021014038105000,Björnudden,58.455833,13.665707,1,,
9021014038106000,Remningstorp,58.450977,13.664349,1,,
9021014038115000,Tre bäckar,58.382826,13.673836,1,,
9021014038116000,Ljungstorp väg 49,58.380638,13.683769,1,,
9021014038123000,Storekullen,58.378267,13.719272,1,,
9021014038124000,Rosenlund,58.379042,13.699031,1,,
9021014038125000,Skäggatorp,58.420807,13.347112,1,,
9021014038126000,Hökaslätten,58.410807,13.379316,1,,
9021014038127000,Skattegården,58.408673,13.384652,1,,
9021014038128000,Passagården,58.404214,13.391513,1,,
9021014038130000,Stymne,58.447177,13.442191,1,,
9021014038131000,Myråsen,58.445234,13.447194,1,,
9021014038133000,Kungsängen,58.438835,13.464076,1,,
9021014038136000,Marskaby,58.418664,13.465930,1,,
9021014038145000,Skålltorp,58.398070,13.580833,1,,
9021014038148000,Axvall centrum,58.388534,13.574716,1,,
9021014038149000,Vingsjöbadet,58.386192,13.583825,1,,
9021014038150000,Vallehemmet,58.384772,13.591904,1,,
9021014038151000,Nylund,58.384078,13.602330,1,,
9021014038152000,Ökull,58.385162,13.617818,1,,
9021014038154000,Himmelskällan,58.376798,13.642068,1,,
9021014038155000,Varnhem,58.386682,13.648325,1,,
9021014038161000,Skarpaliden,58.402668,13.598668,1,,
9021014038162000,Skärv,58.407435,13.603322,1,,
9021014038163000,Svenstorp,58.414226,13.608360,1,,
9021014038164000,Sjötuna,58.418465,13.612370,1,,
9021014038165000,Solhagen,58.422319,13.618280,1,,
9021014038166000,Näs,58.424664,13.624181,1,,
9021014038168000,Eggby,58.432477,13.641689,1,,
9021014038169000,Lidängen,58.439669,13.653249,1,,
9021014038172000,Marie kyrkogård,58.384159,13.465034,1,,
9021014038173000,Götala,58.385024,13.478783,1,,
9021014038174000,Örnsrovägen,58.385661,13.493226,1,,
9021014038175000,Tubbetorp,58.387917,13.516411,1,,
9021014038176000,Finnatorp,58.390642,13.527536,1,,
9021014038177000,Varnhem väg 49,58.385365,13.662315,1,,
9021014038178000,Pickagårdsvägen,58.386597,13.642786,1,,
9021014038179000,Domkyrkan,58.386451,13.438421,1,,
9021014038180000,Källeskolan,58.388592,13.444536,1,,
9021014038182000,Katedralskolan Brunsbogatan,58.390765,13.449658,1,,
9021014038187000,Viktoriaskolan,58.386397,13.450945,1,,
9021014038188000,Katedralskolan,58.388744,13.454913,1,,
9021014038194000,Bågen,58.379627,13.447530,1,,
9021014038195000,Dustaregatan,58.378621,13.446822,1,,
9021014038200000,Oxbacken Scan,58.382717,13.429829,1,,
9021014038201000,Valhallagatan,58.383039,13.427489,1,,
9021014038202000,Repslagarestigen,58.383827,13.420732,1,,
9021014038203000,Odalgatan,58.383161,13.416999,1,,
9021014038204000,Lantmannagatan,58.383074,13.412847,1,,
9021014038208000,Tennisbanan,58.388475,13.426169,1,,
9021014038210000,Malmgården,58.390414,13.431916,1,,
9021014038211000,Vårdcentrum entrén,58.391544,13.429574,1,,
9021014038212000,Hindsbogatan,58.385543,13.433210,1,,
9021014038213000,Valhall,58.381713,13.415439,1,,
9021014038222000,Kaplansgatan,58.391388,13.444054,1,,
9021014038225000,Istrum,58.444106,13.613623,1,,
9021014038241000,Sankt Persgatan,58.385038,13.425724,1,,
9021014038244000,Krukmakaregatan,58.384898,13.415792,1,,
9021014038258000,Djurgårdsängen,58.380319,13.443874,1,,
9021014038262000,Botan,58.386198,13.443461,1,,
9021014038276000,Klippan,58.435238,13.467504,1,,
9021014038278000,Axvalla travbana,58.396249,13.563284,1,,
9021014038280000,Västra Gerum,58.349949,13.259122,1,,
9021014038283000,Kålltorp E20,58.349303,13.289195,1,,
9021014038284000,Hagalund väg E20,58.356144,13.333796,1,,
9021014038285000,Ardala,58.360360,13.338162,1,,
9021014038287000,Simmatorp,58.373196,13.385846,1,,
9021014038288000,Blombacka,58.351807,13.334633,1,,
9021014038289000,Hagelsten,58.341777,13.321199,1,,
9021014038290000,Syltan,58.327499,13.315523,1,,
9021014038291000,Nolgården,58.323182,13.313099,1,,
9021014038292000,Östtorp,58.319883,13.310200,1,,
9021014038293000,Vinköl bygdegård,58.323022,13.286179,1,,
9021014038294000,Vinköl,58.325976,13.281357,1,,
9021014038295000,Västtorp,58.323850,13.266911,1,,
9021014038304000,Stenumsvägen,58.340591,13.435304,1,,
9021014038305000,Broke bro,58.332633,13.435416,1,,
9021014038306000,Halleberg,58.328041,13.436729,1,,
9021014038307000,Torpa,58.323363,13.434699,1,,
9021014038308000,Härlunda,58.317687,13.434830,1,,
9021014038309000,Långakrogen,58.312859,13.448529,1,,
9021014038310000,Trestena,58.311498,13.456321,1,,
9021014038311000,Bjärka skola,58.302119,13.468179,1,,
9021014038312000,Bjärka,58.298029,13.470216,1,,
9021014038313000,Dagsnäs,58.284630,13.483347,1,,
9021014038314000,Timmerbacken,58.372514,13.637890,1,,
9021014038315000,Klippeskede,58.361543,13.627476,1,,
9021014038316000,Stora Lycke,58.351400,13.619052,1,,
9021014038317000,Stora Ekeberg,58.398628,13.540943,1,,
9021014038318000,Sommarland,58.401419,13.550239,1,,
9021014038319000,Munkatorp,58.372612,13.413145,1,,
9021014038320000,Norra Lundby,58.375278,13.618324,1,,
9021014038321000,Duvemåla,58.332548,13.316171,1,,
9021014038322000,Marum,58.358995,13.365420,1,,
9021014038324000,Skogsberg,58.358850,13.424822,1,,
9021014038329000,Frejan,58.383958,13.432117,1,,
9021014038330000,Trandansen,58.277170,13.485269,1,,
9021014038333000,Räddningsvägen,58.401259,13.896499,1,,
9021014038335000,Postgården,58.399899,13.591865,1,,
9021014038339000,Vårdcentralen Vilan,58.385542,13.453856,1,,
9021014038340000,Ivar Widéensgatan,58.390945,13.421748,1,,
9021014038342000,Skarabergsrondellen,58.394579,13.451595,1,,
9021014038343000,Vilangatan,58.390226,13.458578,1,,
9021014038344000,Glasbacken,58.383825,13.455231,1,,
9021014038345000,Mynthusgatan,58.382056,13.443370,1,,
9021014038346000,Gällkvistskolan,58.378673,13.442237,1,,
9021014038347000,Sven Grottegatan,58.379277,13.437216,1,,
9021014038348000,Organistgatan,58.380550,13.434783,1,,
9021014038349000,Fokus,58.378721,13.429973,1,,
9021014038350000,Afsengatan,58.377634,13.422616,1,,
9021014038351000,Danielstorpsgatan,58.379055,13.418431,1,,
9021014038352000,Mariebergsskolan,58.386637,13.420606,1,,
9021014038353000,Lilla Hindsboparken,58.389884,13.417279,1,,
9021014038354000,Marie kyrkogård östra,58.384218,13.470693,1,,
9021014038355000,Hospitalsgatan,58.379339,13.413784,1,,
9021014039000000,Hjo busstation,58.305226,14.293486,1,,
9021014039104000,Tjustorp,58.296488,14.058149,1,,
9021014039106000,Hamrum,58.303801,14.085547,1,,
9021014039108000,Fridene kyrka,58.293918,14.050643,1,,
9021014039109000,Brodal,58.290107,14.049142,1,,
9021014039110000,Bosgården,58.287091,14.048217,1,,
9021014039112000,Blikstorp,58.281833,14.057515,1,,
9021014039113000,Karlslund,58.283047,14.037121,1,,
9021014039114000,Kättarp,58.279426,14.028693,1,,
9021014039115000,Fridene,58.275901,14.024561,1,,
9021014039116000,Dalstorp,58.273152,14.022165,1,,
9021014039117000,Bengtstorp,58.271682,14.019051,1,,
9021014039119000,Karthagen,58.300697,14.076140,1,,
9021014039120000,Sandruder,58.345969,14.127628,1,,
9021014039121000,Svebråta,58.346862,14.141427,1,,
9021014039122000,Fredstorp,58.341974,14.171166,1,,
9021014039123000,Mofallagården,58.341677,14.187878,1,,
9021014039127000,Ebbetorp,58.341497,14.194903,1,,
9021014039128000,Östralid,58.341498,14.205254,1,,
9021014039129000,Gråhall,58.338929,14.231599,1,,
9021014039130000,Nyholm,58.335707,14.245622,1,,
9021014039131000,Nygården,58.332792,14.252498,1,,
9021014039132000,Knäppetorp,58.324856,14.260912,1,,
9021014039133000,Källebo,58.321820,14.267053,1,,
9021014039135000,Rosenlund,58.312171,14.279438,1,,
9021014039136000,Nygatan,58.305843,14.288184,1,,
9021014039148000,Korsberga,58.303649,14.099577,1,,
9021014039149000,Sandstugan,58.304557,14.111294,1,,
9021014039150000,Söran,58.309503,14.135762,1,,
9021014039151000,Stora Solberga,58.308218,14.153149,1,,
9021014039152000,Stenbolet,58.311233,14.164990,1,,
9021014039154000,Hulan,58.312169,14.176386,1,,
9021014039155000,Bengtstorp Mullsjön,58.311320,14.184017,1,,
9021014039156000,Kullebäcken,58.306385,14.197646,1,,
9021014039157000,Kullavik,58.306694,14.202486,1,,
9021014039158000,Varpet,58.308377,14.211783,1,,
9021014039159000,Åkarp,58.308322,14.229259,1,,
9021014039161000,Högalund,58.305897,14.245762,1,,
9021014039162000,Karlsberg,58.303914,14.252271,1,,
9021014039163000,Ekestugan,58.303141,14.258310,1,,
9021014039165000,Jönköpingsvägen,58.293731,14.282542,1,,
9021014039166000,Borrbäck,58.290800,14.274005,1,,
9021014039168000,Norra Hulan,58.273537,14.261640,1,,
9021014039173000,Myrebo,58.264571,14.256508,1,,
9021014039174000,Klarinettvägen,58.291911,14.272055,1,,
9021014039175000,Orkestervägen,58.297042,14.269339,1,,
9021014039176000,Korsgården väg 195,58.256371,14.241395,1,,
9021014039177000,Katebo,58.241452,14.228002,1,,
9021014039178000,Isleryd,58.230773,14.216246,1,,
9021014039179000,Linderyd,58.225887,14.208998,1,,
9021014039180000,Äskelid,58.212539,14.204547,1,,
9021014039187000,Gate gamla skola,58.179471,14.199487,1,,
9021014039188000,Södra Fågelås kyrka,58.198543,14.207173,1,,
9021014039189000,Kolabotten,58.165515,14.208554,1,,
9021014039192000,Djupedal,58.173436,14.205403,1,,
9021014039194000,Guldkroksskolan,58.299048,14.277658,1,,
9021014039195000,Hammarsvägen,58.303966,14.280185,1,,
9021014039196000,Guldkroksgatan,58.301942,14.274766,1,,
9021014039197000,Ringvägen,58.301817,14.278215,1,,
9021014039199000,Lövåsen,58.308706,14.221469,1,,
9021014039200000,Folkhögskolan,58.302779,14.262618,1,,
9021014039202000,Spännefallavägen,58.343613,14.155377,1,,
9021014039203000,Rusarpsvägen,58.304898,14.106115,1,,
9021014039204000,Gate väg 195,58.179498,14.203890,1,,
9021014039207000,Hackebo,58.160973,14.210405,1,,
9021014039208000,Sörtorp,58.155624,14.212597,1,,
9021014039209000,Lunnebacken,58.146362,14.215265,1,,
9021014039210000,Rinkabäck,58.141969,14.216686,1,,
9021014039212000,Misten,58.205737,14.205686,1,,
9021014039213000,Skalleberg,58.150775,14.214386,1,,
9021014039215000,Monäs,58.191564,14.204301,1,,
9021014039216000,Trollebo,58.249267,14.232534,1,,
9021014039218000,Sigghusberg,58.302857,14.266694,1,,
9021014039219000,Kvarngatan,58.309605,14.283143,1,,
9021014040000000,Vara resecentrum,58.261181,12.951753,1,,
9021014040010000,Vara resecentrum (tåg),58.260821,12.951739,1,,
9021014040101000,Ulvstorp,58.316695,12.799281,1,,
9021014040102000,Smedtofta,58.352551,12.949591,1,,
9021014040103000,Ravelsgården,58.340814,12.940943,1,,
9021014040104000,Adelsåsen,58.332802,12.936643,1,,
9021014040105000,Stora Levene,58.323038,12.927291,1,,
9021014040108000,Attorp,58.300198,12.906765,1,,
9021014040109000,Rydaholm,58.298412,12.933902,1,,
9021014040110000,Rytterås,58.311703,12.945298,1,,
9021014040111000,Long,58.304110,12.955297,1,,
9021014040113000,Hallerna,58.288176,12.960020,1,,
9021014040114000,Grossgården,58.275622,12.954807,1,,
9021014040115000,Lassagården,58.270688,12.961435,1,,
9021014040117000,Ödegården,58.248696,12.916414,1,,
9021014040118000,Brotorp,58.247904,12.905316,1,,
9021014040119000,Kasebergsvägen,58.244123,12.879316,1,,
9021014040120000,Arentorp,58.243010,12.873964,1,,
9021014040121000,Gamla skolvägen,58.241150,12.871758,1,,
9021014040122000,Kedumsgården,58.234073,12.868179,1,,
9021014040124000,Torpa,58.219693,12.853972,1,,
9021014040125000,Tumleberg,58.207605,12.846804,1,,
9021014040126000,Spjutstorp,58.202391,12.849281,1,,
9021014040127000,Grönelund,58.211828,12.863401,1,,
9021014040128000,Lunden,58.222379,12.880818,1,,
9021014040129000,Asperna,58.230017,12.888998,1,,
9021014040130000,Ribbingstorp,58.234879,12.900548,1,,
9021014040131000,Naum kyrka,58.238084,12.918536,1,,
9021014040133000,Djäknegården,58.246516,12.994040,1,,
9021014040134000,Volvofabriken,58.242597,12.993971,1,,
9021014040135000,Rangeltorp,58.228854,13.002752,1,,
9021014040137000,Nordvalla,58.175907,13.001369,1,,
9021014040139000,Larv,58.190347,13.120411,1,,
9021014040140000,Larv skola,58.190624,13.133156,1,,
9021014040141000,Emtunga,58.254828,12.997626,1,,
9021014040143000,Emtungavägen väg E20,58.270106,13.007114,1,,
9021014040144000,Ekaberg,58.274736,13.015995,1,,
9021014040145000,Gudmundsgården,58.273605,13.032343,1,,
9021014040147000,Stora Algutstorp,58.263233,13.054909,1,,
9021014040148000,Lidan,58.263588,13.066482,1,,
9021014040150000,Tråvad,58.252612,13.083338,1,,
9021014040151000,Herrgårdsgatan,58.248591,13.090167,1,,
9021014040152000,Skyttetorpet,58.250688,13.106107,1,,
9021014040153000,Stora Hov egendom,58.255198,13.134227,1,,
9021014040154000,Stora Hov,58.261318,13.125126,1,,
9021014040155000,Bjertorp,58.266415,13.116213,1,,
9021014040156000,Bremsegården,58.278222,13.102369,1,,
9021014040157000,Fyrunga,58.282705,13.096944,1,,
9021014040158000,Hindstorp,58.285204,13.125006,1,,
9021014040159000,Badene,58.285297,13.136942,1,,
9021014040160000,Gatan,58.288444,13.155661,1,,
9021014040161000,Oltorp,58.291614,13.166858,1,,
9021014040162000,Byvägen,58.297247,13.179450,1,,
9021014040163000,Kvänum busstation,58.299781,13.187050,1,,
9021014040164000,Stommen,58.285968,13.115260,1,,
9021014040165000,Skatofta,58.281149,13.006101,1,,
9021014040166000,Åsen,58.277821,13.022610,1,,
9021014040168000,Kartegården,58.291572,13.041651,1,,
9021014040170000,Dönstorp,58.295579,13.064055,1,,
9021014040171000,Löjtnantsholm,58.300165,13.080443,1,,
9021014040172000,Törestorp,58.309176,13.089394,1,,
9021014040173000,Åsa,58.313079,13.092120,1,,
9021014040174000,Tyskatorp,58.319302,13.096156,1,,
9021014040175000,Jungs bygdegård,58.324421,13.104453,1,,
9021014040176000,Jung kyrka,58.327386,13.114848,1,,
9021014040178000,Jungatorp,58.325049,13.143645,1,,
9021014040179000,Bystorp,58.323265,13.150740,1,,
9021014040180000,Vägerstorp,58.316747,13.167214,1,,
9021014040182000,Västgötagatan,58.302601,13.180711,1,,
9021014040183000,Toltorp,58.310556,13.210311,1,,
9021014040184000,Nyholm,58.319381,13.217565,1,,
9021014040185000,Öttum,58.322887,13.219728,1,,
9021014040186000,Fårhaga,58.328480,13.220044,1,,
9021014040187000,Lassegården,58.334436,13.209770,1,,
9021014040188000,Jonstorp,58.346283,13.191690,1,,
9021014040189000,Jung,58.333186,13.123148,1,,
9021014040193000,Jung Preem,58.329684,13.132488,1,,
9021014040196000,Nästegårdsskolan,58.302705,13.186132,1,,
9021014040198000,Boestorp,58.206694,13.022583,1,,
9021014040201000,Rylanda,58.300131,12.888440,1,,
9021014040202000,Orrebacken,58.303398,12.869830,1,,
9021014040203000,Vara vårdcentral,58.264156,12.964777,1,,
9021014040204000,Solgården,58.261144,12.959596,1,,
9021014040205000,Faleberg,58.174728,13.068350,1,,
9021014040206000,Vedum station,58.169198,12.999195,1,,
9021014040209000,Södra Lundby,58.189580,13.041277,1,,
9021014040211000,Lagmansgymnasiet,58.266333,12.968334,1,,
9021014040212000,Rådmansgatan,58.260214,12.947496,1,,
9021014040213000,Alléskolan,58.263519,12.958625,1,,
9021014040217000,Stora Levene station,58.326161,12.925963,1,,
9021014040218000,Håkantorp station,58.307081,12.907366,1,,
9021014040221000,Vedum södra torget,58.169261,12.995808,1,,
9021014040222000,Villaberg,58.344071,13.213297,1,,
9021014040223000,Smedjegatan,58.258304,12.974214,1,,
9021014040225000,Baggevalla,58.315591,13.244968,1,,
9021014040228000,Bitterna,58.142454,13.024719,1,,
9021014040229000,Sandvadet,58.219908,13.001739,1,,
9021014040230000,Torsgården,58.264720,12.976559,1,,
9021014040231000,Åshult,58.308237,12.857777,1,,
9021014040235000,Horshaga,58.194120,12.999223,1,,
9021014040236000,Lilla Gruvad,58.207102,13.005522,1,,
9021014040237000,Lyckhem,58.199578,13.001826,1,,
9021014040238000,Ringestad,58.154191,13.013413,1,,
9021014040239000,Bjurdamm,58.117094,13.037091,1,,
9021014040240000,Börsen,58.275594,12.993282,1,,
9021014040241000,Lockebacke,58.182892,13.093863,1,,
9021014040242000,Torggatan,58.257770,12.960967,1,,
9021014040245000,Badenetorpsvägen,58.306498,13.175493,1,,
9021014040246000,Liden,58.186981,13.001138,1,,
9021014041001000,Falköping resecentrum,58.175968,13.553595,1,,
9021014041003000,Falköping centrum,58.162754,13.555967,1,,
9021014041010000,Falköping resecentrum (tåg),58.175985,13.551945,1,,
9021014041100000,Bjurum,58.268096,13.492834,1,,
9021014041101000,Bredegården,58.261151,13.498787,1,,
9021014041102000,Munkabron,58.256657,13.503170,1,,
9021014041103000,Nyborg,58.249125,13.511308,1,,
9021014041104000,Stommen,58.244088,13.520037,1,,
9021014041105000,Forentorp,58.241507,13.529889,1,,
9021014041106000,Lyckorna,58.240622,13.538903,1,,
9021014041107000,Kabelstationen,58.235281,13.547877,1,,
9021014041111000,Gudhems affär,58.226783,13.564537,1,,
9021014041114000,Jättene,58.208845,13.560666,1,,
9021014041115000,Holmagården,58.202619,13.560577,1,,
9021014041116000,Ridskolan,58.195980,13.560591,1,,
9021014041119000,Gunnabo,58.063449,13.721104,1,,
9021014041121000,Kleva klintar,58.208738,13.447286,1,,
9021014041122000,Örbytorp,58.210745,13.392391,1,,
9021014041124000,Lexberg,58.157404,13.406202,1,,
9021014041125000,Odensberg,58.153871,13.440092,1,,
9021014041126000,Marka kyrka,58.158611,13.478567,1,,
9021014041127000,Hjulsbro,58.194273,13.570136,1,,
9021014041128000,Friggeråker,58.199161,13.579042,1,,
9021014041129000,Rännagården,58.203710,13.585055,1,,
9021014041131000,Katarinagården,58.210494,13.604851,1,,
9021014041132000,Torbjörntorp norra,58.209073,13.610422,1,,
9021014041133000,Balltorp,58.210087,13.621104,1,,
9021014041134000,Berga,58.214957,13.634635,1,,
9021014041135000,Valtorp väg 46,58.223735,13.648277,1,,
9021014041136000,Björkliden,58.226791,13.654376,1,,
9021014041137000,Åstorp,58.231808,13.665153,1,,
9021014041138000,Klostergården,58.236864,13.675336,1,,
9021014041139000,Kalkbruket,58.344466,13.619066,1,,
9021014041140000,Lunnagården,58.341144,13.619264,1,,
9021014041141000,Bjällum,58.333889,13.619479,1,,
9021014041142000,Kiosken,58.331172,13.616613,1,,
9021014041143000,Bolum skola,58.324922,13.611786,1,,
9021014041144000,Bolum,58.319213,13.612249,1,,
9021014041145000,Brestorp,58.314240,13.611727,1,,
9021014041146000,Munkgården,58.310469,13.611038,1,,
9021014041147000,Broddetorp,58.305375,13.606050,1,,
9021014041148000,Hornborga,58.298146,13.599629,1,,
9021014041149000,Kolonin,58.293824,13.601949,1,,
9021014041150000,Norra Sniken,58.284156,13.604258,1,,
9021014041151000,Södra Sniken,58.280712,13.604700,1,,
9021014041152000,Ekornavallen,58.277569,13.605625,1,,
9021014041153000,Skattegården,58.269696,13.601144,1,,
9021014041154000,Äspås,58.264718,13.596874,1,,
9021014041155000,Håkantorp,58.253872,13.598206,1,,
9021014041156000,Skogen,58.247024,13.601219,1,,
9021014041157000,Yreboden,58.241996,13.600616,1,,
9021014041158000,Kloarebacken,58.235671,13.601342,1,,
9021014041159000,Rörsberga,58.229090,13.604922,1,,
9021014041160000,Tomten,58.223471,13.605347,1,,
9021014041164000,Odensberg skola,58.155224,13.437603,1,,
9021014041166000,Torbjörntorps skola,58.212547,13.601163,1,,
9021014041167000,Sjukhusentrén Falköping,58.187792,13.552247,1,,
9021014041170000,Bergsliden,58.184406,13.553881,1,,
9021014041171000,Mössebergsparken,58.180303,13.550052,1,,
9021014041172000,Nils Ericsonsgatan,58.179214,13.553871,1,,
9021014041174000,Västerängsgatan,58.174062,13.583070,1,,
9021014041175000,Trinnöjegatan,58.173433,13.557370,1,,
9021014041176000,Dotorp,58.172420,13.562393,1,,
9021014041177000,Tåstorpsparken,58.171313,13.568575,1,,
9021014041178000,Fredriksberg,58.168717,13.569343,1,,
9021014041179000,Ållebergsgymnasiet,58.165249,13.567697,1,,
9021014041180000,Aspens,58.162142,13.564643,1,,
9021014041181000,Vilhelmsberg,58.160019,13.562774,1,,
9021014041183000,Medborgarhuset,58.167383,13.557819,1,,
9021014041184000,Stadshuset,58.169379,13.557161,1,,
9021014041186000,Oden vårdcentral,58.164326,13.555988,1,,
9021014041193000,Mössebergsgården,58.180274,13.538897,1,,
9021014041195000,Mösseberg,58.175426,13.522739,1,,
9021014041199000,Bestorp,58.170467,13.532023,1,,
9021014041201000,Sjukhuset Falköping,58.187338,13.554987,1,,
9021014041205000,Fredsgatan,58.162166,13.568416,1,,
9021014041206000,Gläshallsgatan,58.170988,13.539108,1,,
9021014041209000,Odenhallen,58.163870,13.560970,1,,
9021014041211000,Falbygdens Ost,58.167068,13.534135,1,,
9021014041216000,Mandelblomsgatan,58.157758,13.562984,1,,
9021014041222000,Mössebergs kurort,58.183717,13.545423,1,,
9021014041224000,Ålleberg center norra,58.153933,13.561626,1,,
9021014041228000,Ugglum,58.239496,13.508322,1,,
9021014041229000,Ståltorp,58.229599,13.481796,1,,
9021014041230000,Filadelfia,58.224981,13.477992,1,,
9021014041231000,Björsgården,58.208292,13.434251,1,,
9021014041232000,Ryd,58.210079,13.380201,1,,
9021014041233000,Spånbacken,58.205289,13.367383,1,,
9021014041234000,Tokatorp,58.200029,13.360018,1,,
9021014041235000,Lilla Tokatorp,58.184164,13.363436,1,,
9021014041236000,Äleberg,58.175892,13.391873,1,,
9021014041238000,Ullene väg 47,58.188735,13.351523,1,,
9021014041239000,Gudhemsvägen,58.216801,13.466256,1,,
9021014041240000,Trävattna korsväg,58.182501,13.345995,1,,
9021014041241000,Gökhems korsväg,58.165084,13.418370,1,,
9021014041242000,Anfastorp,58.207419,13.418122,1,,
9021014041243000,Gudhem väg 184,58.226520,13.562760,1,,
9021014041244000,Gökhem väg 47,58.171781,13.402906,1,,
9021014041245000,Viadukten Odensberg,58.154171,13.447063,1,,
9021014041247000,Munkabo,58.301299,13.805988,1,,
9021014041248000,Nykvarn,58.308151,13.836067,1,,
9021014041249000,Frödingstorp,58.302775,13.835544,1,,
9021014041251000,Lorensberg,58.298438,13.833673,1,,
9021014041252000,Smedstorp,58.292498,13.829518,1,,
9021014041253000,Brobacken,58.289082,13.821375,1,,
9021014041254000,Prästegården,58.291324,13.809326,1,,
9021014041255000,Borgunda väg 26,58.293774,13.806241,1,,
9021014041256000,Borgundaberget,58.293043,13.788644,1,,
9021014041257000,Lilla Borgunda,58.289003,13.774727,1,,
9021014041258000,Kullabo,58.277244,13.755183,1,,
9021014041259000,Idrottsplatsen,58.270306,13.726563,1,,
9021014041260000,Solbackagatan,58.271377,13.721308,1,,
9021014041261000,Stenstorp Ågatan,58.272330,13.716909,1,,
9021014041262000,Stenstorp vårdcentral,58.271046,13.711602,1,,
9021014041263000,Stenstorps kyrka,58.267000,13.709447,1,,
9021014041264000,Torstensgården,58.251602,13.694297,1,,
9021014041265000,Öja,58.247153,13.686180,1,,
9021014041266000,Borgunda,58.292591,13.800822,1,,
9021014041267000,Stora Skattegården,58.286272,13.796499,1,,
9021014041268000,Asstorp,58.281706,13.793312,1,,
9021014041269000,Bussagården,58.276276,13.789029,1,,
9021014041270000,Dala kvarn,58.271128,13.788932,1,,
9021014041271000,Klippegården,58.263372,13.789452,1,,
9021014041272000,Dala säteri,58.255397,13.787713,1,,
9021014041273000,Dala kyrkby,58.253845,13.785057,1,,
9021014041274000,Gärdhem,58.250453,13.784508,1,,
9021014041275000,Häggatorp,58.247817,13.785041,1,,
9021014041276000,Prinsatorp,58.272322,13.809947,1,,
9021014041279000,Gustaf Dalénskolan,58.272631,13.704912,1,,
9021014041280000,Stenstorp station,58.273992,13.715212,1,,
9021014041287000,Stämmestorp,58.262804,13.706702,1,,
9021014041289000,Åsebacken,58.253903,13.813273,1,,
9021014041291000,Floby station,58.139094,13.335047,1,,
9021014041292000,Göteve,58.125334,13.425735,1,,
9021014041293000,Skånum,58.087346,13.428901,1,,
9021014041294000,Jäla,58.034373,13.364189,1,,
9021014041295000,Luttra kyrka väg 46,58.134796,13.562109,1,,
9021014041296000,Liden,58.124813,13.550779,1,,
9021014041297000,Klockaretomten,58.112417,13.541420,1,,
9021014041298000,Ledsgården,58.106785,13.536746,1,,
9021014041299000,Ödegården,58.101649,13.531475,1,,
9021014041300000,Backgården,58.096191,13.527085,1,,
9021014041301000,Siggagården,58.092549,13.525216,1,,
9021014041303000,Skogsvägen,58.083199,13.516122,1,,
9021014041304000,Frökind,58.080054,13.516032,1,,
9021014041305000,Fastarpsgatan,58.077434,13.518582,1,,
9021014041306000,Kinnarp,58.074432,13.520775,1,,
9021014041307000,Länsmansgatan,58.070445,13.524009,1,,
9021014041308000,Västarp,58.066577,13.528203,1,,
9021014041309000,Nedergården,58.049579,13.550810,1,,
9021014041310000,Hög,58.044890,13.557133,1,,
9021014041311000,Alvareds bro,58.028444,13.549464,1,,
9021014041312000,Alvared,58.025970,13.553865,1,,
9021014041314000,Fredahlsgatan,58.024349,13.562244,1,,
9021014041315000,Åsarps centrum,58.024152,13.566315,1,,
9021014041316000,Norra Åsarp kyrka,58.021749,13.570695,1,,
9021014041318000,Vartofta affär,58.096381,13.631179,1,,
9021014041319000,Vartofta station,58.091929,13.629823,1,,
9021014041320000,Floby Volvo,58.130564,13.334630,1,,
9021014041321000,Nätered,58.125731,13.685169,1,,
9021014041322000,Falekvarna,58.128170,13.662274,1,,
9021014041324000,Klövhålan,58.130572,13.656665,1,,
9021014041325000,Leaby,58.140512,13.635142,1,,
9021014041326000,Ålleberg,58.149794,13.606276,1,,
9021014041327000,Åsen,58.009114,13.567035,1,,
9021014041328000,Slöta,58.113980,13.624631,1,,
9021014041329000,Mönarp,58.101460,13.480103,1,,
9021014041330000,Hunnarumpen,58.073010,13.396537,1,,
9021014041331000,Ölstorp,58.142726,13.390532,1,,
9021014041332000,Hässlebergsgatan,58.136465,13.337344,1,,
9021014041335000,Floby skola,58.131878,13.334874,1,,
9021014041340000,Östergårdsgatan,58.101929,13.629982,1,,
9021014041349000,Floby kyrka,58.125420,13.345992,1,,
9021014041350000,Heden,58.107659,13.353553,1,,
9021014041352000,Saldebacken,58.044255,13.547942,1,,
9021014041353000,Holmstorp väg 46,58.049982,13.545931,1,,
9021014041354000,Smårör,58.057843,13.542086,1,,
9021014041355000,Storegården,58.028230,13.551166,1,,
9021014041356000,Solberga,58.015307,13.572170,1,,
9021014041357000,Korsgården,58.088098,13.636958,1,,
9021014041358000,Snurrom,58.125755,13.691043,1,,
9021014041359000,Orreholmen,58.125128,13.699997,1,,
9021014041360000,Bäcksgården,58.125341,13.717460,1,,
9021014041361000,Skörstorp,58.124835,13.733354,1,,
9021014041362000,Fredriksberg Östra Gerum,58.121876,13.759417,1,,
9021014041363000,Kälvene väg 47,58.098158,13.724510,1,,
9021014041364000,Kättilstorp,58.041012,13.709760,1,,
9021014041365000,Vistorp,58.013080,13.693518,1,,
9021014041366000,Kälvene,58.097248,13.719741,1,,
9021014041367000,Grönalundsgatan,58.044354,13.712452,1,,
9021014041368000,Yllestads kyrka,58.051455,13.714670,1,,
9021014041370000,Näs kyrka,58.085434,13.736752,1,,
9021014041381000,Vilske-Kleva sågen,58.213531,13.456541,1,,
9021014041382000,Torbjörntorp södra,58.209190,13.593210,1,,
9021014041383000,Borgen,58.160943,13.507107,1,,
9021014041385000,Pintorp,58.273215,13.746424,1,,
9021014041386000,Forntidsbyn,58.031951,13.555283,1,,
9021014041388000,Högården,58.244365,13.786676,1,,
9021014041392000,Agnestad,58.155513,13.589636,1,,
9021014041393000,Sunnagården,58.035816,13.368104,1,,
9021014041394000,Brogården,58.117219,13.448926,1,,
9021014041397000,Skatteberg,58.091120,13.661880,1,,
9021014041399000,Rogestorp,58.128881,13.556217,1,,
9021014041401000,Jesper Swedbergsgatan,58.174106,13.543129,1,,
9021014041405000,Ålleberg center västra,58.151487,13.558208,1,,
9021014041406000,Kapellsgatan,58.168276,13.534493,1,,
9021014041407000,Smedjegatan,58.171683,13.551967,1,,
9021014041408000,Westerbergsgatan,58.169169,13.552919,1,,
9021014041409000,Fredriksbergsvägen,58.169232,13.560057,1,,
9021014041410000,Allégatan,58.177807,13.547824,1,,
9021014041411000,Bredablick,58.183504,13.538543,1,,
9021014041415000,Stora Bredegården,58.263778,13.750439,1,,
9021014041416000,Bergsängsvägen,58.177883,13.541104,1,,
9021014041417000,Nygrannegården,58.135056,13.368713,1,,
9021014041418000,Sörbyvägen,58.138164,13.377166,1,,
9021014041419000,Slutarp väg 46,58.085463,13.519996,1,,
9021014041420000,Ålleberg center södra,58.149823,13.560365,1,,
9021014041421000,Sörby Rössberga,58.139191,13.380194,1,,
9021014041900000,Bussgaraget,58.164721,13.567140,1,,
9021014042000000,Tidaholm busstation,58.179524,13.955818,1,,
9021014042101000,Sörgården,58.239429,13.788990,1,,
9021014042102000,Vekagården,58.232651,13.793206,1,,
9021014042103000,Kungslena,58.226987,13.807991,1,,
9021014042104000,Korsgården,58.225228,13.813975,1,,
9021014042105000,Hagalund,58.219145,13.823507,1,,
9021014042106000,Stommen,58.216688,13.824933,1,,
9021014042107000,Nya varv,58.207303,13.827047,1,,
9021014042108000,Högan,58.202451,13.825897,1,,
9021014042109000,Varvboholm,58.195715,13.825983,1,,
9021014042110000,Kungslena Mad,58.233664,13.832598,1,,
9021014042111000,Kavlåsbruket,58.216561,13.857399,1,,
9021014042112000,Malmslätt,58.212034,13.853493,1,,
9021014042113000,Nybo,58.208175,13.846828,1,,
9021014042114000,Övertorp,58.205234,13.843486,1,,
9021014042115000,Ekedalens skola,58.199513,13.841630,1,,
9021014042116000,Ekedalen,58.196644,13.842199,1,,
9021014042117000,Björkhem,58.196125,13.850365,1,,
9021014042118000,Mellomgården,58.194670,13.866488,1,,
9021014042119000,Acklinga kyrka,58.195405,13.878493,1,,
9021014042120000,Acklinga,58.195458,13.884547,1,,
9021014042121000,Bruket,58.215657,13.856832,1,,
9021014042123000,Dimbo,58.170080,13.820334,1,,
9021014042124000,Sandlid,58.164967,13.826027,1,,
9021014042126000,Ottravad,58.160086,13.843268,1,,
9021014042127000,Ingabo,58.158552,13.850473,1,,
9021014042128000,Tjärhemmet,58.194382,13.918128,1,,
9021014042129000,Ridskolan,58.191674,13.940153,1,,
9021014042130000,Ulvestorpsgatan,58.189186,13.947745,1,,
9021014042131000,Ulvesborg,58.187232,13.953739,1,,
9021014042132000,Midgård,58.186339,13.957625,1,,
9021014042135000,Hörnviksgatan,58.171570,13.949727,1,,
9021014042138000,Ängatorp,58.162136,13.902518,1,,
9021014042140000,Kaggestorp,58.267054,14.017713,1,,
9021014042141000,Solhem,58.260267,14.016964,1,,
9021014042142000,Fröjered norra,58.252193,14.014819,1,,
9021014042143000,Fröjered kyrka,58.246265,14.017147,1,,
9021014042144000,Hästhagen,58.244174,14.013934,1,,
9021014042145000,Nycklerör,58.230448,13.993029,1,,
9021014042146000,Svartekulla,58.219117,13.982302,1,,
9021014042148000,Uddestorp,58.207480,13.982788,1,,
9021014042149000,Björkedal,58.203770,13.980461,1,,
9021014042151000,Kullö,58.188962,13.975459,1,,
9021014042152000,Rudbecksgymnasiet,58.181071,13.967013,1,,
9021014042164000,Piggsliden,58.186512,13.993744,1,,
9021014042165000,Lagmansgatan,58.183413,13.980108,1,,
9021014042166000,Faxtorp,58.162049,14.039899,1,,
9021014042167000,Gärdet,58.193054,13.896258,1,,
9021014042168000,Dimboholm,58.182940,13.819993,1,,
9021014042170000,Forsen,58.184507,13.965485,1,,
9021014042173000,Hellidsskolan,58.176731,13.973515,1,,
9021014042174000,Tidavallen,58.171904,13.956569,1,,
9021014042176000,Vulcan,58.176459,13.953392,1,,
9021014042177000,Alphyddan,58.174182,13.969355,1,,
9021014042178000,Stensiken,58.172013,13.964403,1,,
9021014042180000,Källevägen,58.183338,13.976420,1,,
9021014042189000,Orleka,58.258519,13.982979,1,,
9021014042190000,Von Essens väg,58.177521,13.973493,1,,
9021014042193000,Hångsdala,58.121946,13.769431,1,,
9021014042194000,Hasslekärr,58.125904,13.785051,1,,
9021014042195000,Valstad väg 193,58.128552,13.813437,1,,
9021014042196000,Valstad,58.125516,13.812452,1,,
9021014042197000,Suntak,58.130219,13.863289,1,,
9021014042198000,Suntakstan,58.139256,13.899163,1,,
9021014042201000,Baltaks bro,58.156572,13.930661,1,,
9021014042203000,Hästhagen Ottravad,58.155770,13.857785,1,,
9021014042204000,Mariedal,58.152796,13.864762,1,,
9021014042205000,Ryd,58.159485,13.887883,1,,
9021014042207000,Baltak kyrka,58.148107,13.932308,1,,
9021014042208000,Madäng,58.137137,13.932059,1,,
9021014042209000,Fridhem,58.070803,13.945314,1,,
9021014042210000,Stenbacken,58.062820,13.978667,1,,
9021014042211000,Älekärr,58.061751,14.000221,1,,
9021014042212000,Stenäng,58.054097,14.008179,1,,
9021014042213000,Alsberg,58.046966,14.020998,1,,
9021014042214000,Klämman,58.054050,14.037088,1,,
9021014042215000,Blåhult,58.080498,14.068950,1,,
9021014042216000,Hökensås,58.097836,14.075420,1,,
9021014042219000,Gälleberg södra,58.126328,14.055767,1,,
9021014042220000,Gälleberg norra,58.127504,14.047196,1,,
9021014042221000,Bogshult,58.131196,14.040118,1,,
9021014042222000,Daretorp,58.139831,14.020336,1,,
9021014042223000,Törestorp,58.148634,14.026346,1,,
9021014042225000,Ullstorp,58.142970,13.989843,1,,
9021014042226000,Köttorp,58.153764,13.964848,1,,
9021014042227000,Ljungbacken,58.141694,13.968477,1,,
9021014042229000,Hadäng,58.120380,13.978650,1,,
9021014042230000,Velinga,58.112882,13.965575,1,,
9021014042231000,Sjogerdala,58.089418,13.942390,1,,
9021014042233000,Vitared,58.017269,14.005847,1,,
9021014042236000,Madängsholm,58.141908,13.916305,1,,
9021014042238000,Gärdesvägen,58.138179,13.925624,1,,
9021014042239000,Fabriksvägen,58.140228,13.923694,1,,
9021014042241000,Mon,58.146655,13.913545,1,,
9021014042242000,Valstad skola,58.125230,13.816519,1,,
9021014042243000,Skogagården,58.143787,13.907992,1,,
9021014042245000,Slåttorna,58.161890,13.962165,1,,
9021014042247000,Mobacken,58.191136,14.046157,1,,
9021014042249000,Baltak väg 193,58.158116,13.927233,1,,
9021014042250000,Madängsholm väg 193,58.148702,13.916660,1,,
9021014042251000,Suntak kyrka,58.126659,13.870127,1,,
9021014042252000,Brissmestorp,58.241671,13.821279,1,,
9021014042253000,Stensikagatan,58.170370,13.962326,1,,
9021014042254000,Fröjered skola,58.247228,14.016251,1,,
9021014042255000,Råbäck,58.234648,13.850993,1,,
9021014042256000,Säby,58.194551,13.977901,1,,
9021014042257000,Velinga kyrka,58.103987,13.966461,1,,
9021014042259000,Härja,58.073686,13.917373,1,,
9021014042260000,Nolgården,58.195960,13.859966,1,,
9021014042261000,Rödåkra,58.221759,14.108665,1,,
9021014042262000,Dvärstorp,58.160238,13.791818,1,,
9021014042263000,Tegelladan,58.180540,13.975854,1,,
9021014042264000,Ramstorpsvägen,58.183568,13.952707,1,,
9021014042265000,Starrsiken,58.191861,14.006980,1,,
9021014042266000,Hjulåsen,58.197032,14.034651,1,,
9021014042267000,Brotorp,58.216601,14.089186,1,,
9021014042268000,Näbbåsvägen,58.173158,13.947385,1,,
9021014042270000,Acklinga Solbacken,58.204136,13.882574,1,,
9021014042271000,Solvik,58.177538,13.960093,1,,
9021014042272000,Kavlås allé,58.226212,13.866981,1,,
9021014042273000,Broholm,58.140701,14.006282,1,,
9021014042274000,Rosenbergsskolan,58.165916,13.959107,1,,
9021014043000000,Slätthultvägen,57.832252,12.703175,1,,
9021014043001000,Kämpagården,57.829830,12.710875,1,,
9021014043003000,Töllsjö skola,57.795316,12.633516,1,,
9021014043005000,Henå,57.750178,12.613240,1,,
9021014043006000,Erikstorp,57.679964,12.566159,1,,
9021014043007000,Almedal,57.672007,12.558893,1,,
9021014043008000,Tingkullen,57.668428,12.575149,1,,
9021014043009000,Slätterna,57.671224,12.593075,1,,
9021014043010000,Grönkullen,57.671719,12.597386,1,,
9021014043011000,Buavägen,57.674654,12.612354,1,,
9021014043012000,Råssa,57.675684,12.616982,1,,
9021014043013000,Hägnen,57.678420,12.626246,1,,
9021014043014000,Buagärde,57.681637,12.636353,1,,
9021014043015000,Marieberg,57.683616,12.646608,1,,
9021014043016000,Rödberg,57.683750,12.651851,1,,
9021014043017000,Horsvad bron,57.686333,12.663747,1,,
9021014043018000,Fines,57.687630,12.673159,1,,
9021014043019000,Kampes,57.687796,12.682679,1,,
9021014043020000,Eriksdalsparken,57.688981,12.691982,1,,
9021014043021000,Bråtes bro,57.690148,12.696824,1,,
9021014043022000,Tumstocksfabriken,57.693258,12.718223,1,,
9021014043023000,Hultafors station,57.695689,12.735506,1,,
9021014043024000,Hultafors hälsocenter,57.698555,12.744021,1,,
9021014043025000,Sjötorp,57.698779,12.749025,1,,
9021014043026000,Storskogen,57.843288,12.650809,1,,
9021014043027000,Olsfors,57.691108,12.701713,1,,
9021014043028000,Bollebygd busstation,57.667830,12.570644,1,,
9021014043030000,Vinkelvägen,57.665955,12.560541,1,,
9021014043031000,Kungsbackavägen,57.664568,12.551563,1,,
9021014043032000,Nässlehult,57.688144,12.568127,1,,
9021014043034000,Stenkulla,57.727423,12.589829,1,,
9021014043036000,Holmens bro,57.692511,12.570015,1,,
9021014043042000,Råddebyvägen,57.693845,12.726375,1,,
9021014043043000,Bohult,57.841186,12.679607,1,,
9021014043044000,Sundsbro,57.724654,12.486249,1,,
9021014043045000,Smedsbo tjärn,57.728060,12.488096,1,,
9021014043047000,Andviken,57.739591,12.495916,1,,
9021014043048000,Jordås nabbe,57.744326,12.498596,1,,
9021014043049000,Kvarnviken,57.749277,12.498120,1,,
9021014043050000,Jordås,57.754403,12.498757,1,,
9021014043055000,Forsa,57.660114,12.532297,1,,
9021014043056000,Bollebygd skola,57.670364,12.556673,1,,
9021014043058000,Fjällastorp,57.674994,12.545643,1,,
9021014043059000,Dammkullen,57.678462,12.536384,1,,
9021014043060000,Lunkebäcken,57.693112,12.515806,1,,
9021014043061000,Tubbaredsvägen,57.705637,12.509357,1,,
9021014043111000,Bollebygd station,57.667605,12.570626,1,,
9021014044401000,Kårslätt,58.896869,11.964283,1,,
9021014044402000,Torpfors,58.894781,11.968373,1,,
9021014044403000,Tingvalla gård,58.869267,12.020821,1,,
9021014044404000,Hindalebyn,58.880181,11.988484,1,,
9021014044405000,Tingvalla,58.865892,12.056660,1,,
9021014044406000,Lindekleven,58.857119,12.080699,1,,
9021014044506000,Vångsjö,58.921128,12.027491,1,,
9021014044507000,Vassända,58.915631,12.020562,1,,
9021014044508000,Rönnhult,58.910107,12.005925,1,,
9021014044509000,Hästeberg,58.904468,11.996027,1,,
9021014044510000,Ölandsön,58.937265,12.083369,1,,
9021014044611000,Ullerön,58.901236,11.979201,1,,
9021014044612000,Jordbron,58.900493,11.955230,1,,
9021014044613000,Mogärdet,58.902228,11.945333,1,,
9021014044615000,Topperud,58.919374,11.917301,1,,
9021014044616000,Sykes,58.918224,11.918811,1,,
9021014044619000,Ängshögevägen,58.905085,11.918436,1,,
9021014044622000,Ängsvallevägen,58.901769,11.922605,1,,
9021014044624000,Sunnanvindsvägen,58.897908,11.931405,1,,
9021014044626000,Sockenstugan,58.904438,11.939980,1,,
9021014044627000,Edsgärdet,58.909694,11.938785,1,,
9021014044628000,Eds centrum,58.911854,11.934389,1,,
9021014044629000,Vildmarksporten,58.912420,11.922282,1,,
9021014044630000,Ed busstation,58.913193,11.932099,1,,
9021014044633000,Viksgärdet,58.909682,11.919034,1,,
9021014044741000,Västra Edsmyren,58.922611,11.914371,1,,
9021014044801000,Ed station,58.913527,11.932938,1,,
9021014044805000,Utsikten,58.916691,11.920477,1,,
9021014045001000,Häljestena väg 44,58.406828,12.830877,1,,
9021014045004000,Noleby,58.399176,12.714781,1,,
9021014045005000,Kilja,58.394290,12.711863,1,,
9021014045008000,Jönslanna,58.374949,12.692011,1,,
9021014045009000,Ås,58.369149,12.686302,1,,
9021014045011000,Täng väg 44,58.400629,12.809779,1,,
9021014045014000,Kronegården,58.392835,12.775133,1,,
9021014045015000,Marieberg,58.389356,12.764180,1,,
9021014045018000,Särestad,58.378554,12.739976,1,,
9021014045019000,Rudberga väg 44,58.371998,12.724406,1,,
9021014045020000,Brättefors,58.364685,12.713353,1,,
9021014045021000,Stommen,58.361110,12.704916,1,,
9021014045024000,Mossebo,58.357739,12.517070,1,,
9021014045025000,Dätterstorp,58.345796,12.547764,1,,
9021014045026000,Floklevsvägen,58.340884,12.558272,1,,
9021014045027000,Flo kyrka,58.335954,12.568282,1,,
9021014045029000,Håberg,58.325447,12.582822,1,,
9021014045030000,Tre Älgar,58.333591,12.608848,1,,
9021014045033000,Logården,58.334016,12.633607,1,,
9021014045034000,Forshall,58.335545,12.649804,1,,
9021014045035000,Grästorp Ågatan,58.333457,12.670698,1,,
9021014045036000,Jon Jespersgatan,58.333222,12.676095,1,,
9021014045038000,Grästorp Smedgatan,58.338800,12.685382,1,,
9021014045040000,Tunvägen,58.345290,12.686051,1,,
9021014045041000,Gaddeberga,58.349429,12.689848,1,,
9021014045042000,Stora Torpa,58.354799,12.695702,1,,
9021014045044000,Skattegården,58.354777,12.678559,1,,
9021014045050000,Herrängsdreven väg 44,58.314362,12.561672,1,,
9021014045051000,Eklanda,58.281652,12.674273,1,,
9021014045052000,Tengene,58.305395,12.670103,1,,
9021014045053000,Flakeberg,58.323616,12.759111,1,,
9021014045054000,Hedbacka,58.326058,12.731459,1,,
9021014045055000,Töfta,58.328401,12.703143,1,,
9021014045056000,Fridhem,58.280586,12.745678,1,,
9021014045060000,Kollebo,58.310073,12.553994,1,,
9021014045061000,Gunnarstorp,58.321432,12.781227,1,,
9021014045500000,Grästorp resecentrum,58.334619,12.684733,1,,
9021014046000000,Mellomgärdet,58.209045,12.574397,1,,
9021014046001000,Rolkens skola,58.211034,12.586876,1,,
9021014046002000,Lindås,58.218187,12.618540,1,,
9021014046003000,Främmestad,58.231257,12.663060,1,,
9021014046004000,Slätten,58.234926,12.670604,1,,
9021014046005000,Bergevi,58.237514,12.680520,1,,
9021014046006000,Dammen,58.239843,12.690506,1,,
9021014046007000,Bredöl,58.232908,12.723152,1,,
9021014046008000,Bärebergs korsväg,58.207445,12.715607,1,,
9021014046009000,Nossebro vårdcentral,58.190879,12.725297,1,,
9021014046010000,Nossebro busstation,58.187447,12.718763,1,,
9021014046011000,Huntorp,58.184166,12.703118,1,,
9021014046012000,Vindtorpsvägen,58.177221,12.700182,1,,
9021014046014000,Kerstinsås,58.187095,12.758697,1,,
9021014046016000,Häljesgården,58.189852,12.776098,1,,
9021014046017000,Essunga kyrka,58.182663,12.782246,1,,
9021014046019000,Krokstorp,58.167078,12.793809,1,,
9021014046020000,Abrahamstorp,58.158966,12.807944,1,,
9021014046021000,Badet,58.156967,12.828192,1,,
9021014046022000,Furubacken,58.183993,12.785344,1,,
9021014046023000,Åsen,58.195897,12.819197,1,,
9021014046024000,Saxberg,58.196395,12.720707,1,,
9021014046025000,Stommen,58.214202,12.717642,1,,
9021014046026000,Hillströms,58.227498,12.720569,1,,
9021014046027000,Baljefors,58.242857,12.706702,1,,
9021014046028000,Rossbo,58.223929,12.650037,1,,
9021014046029000,Pershult,58.215750,12.607346,1,,
9021014046030000,Tåssekärr,58.211843,12.542624,1,,
9021014046033000,Liljedal,58.189457,12.726647,1,,
9021014046034000,Malma säteri,58.266699,12.770431,1,,
9021014046035000,Tegalund,58.106487,12.809062,1,,
9021014046036000,Bredäng,58.112664,12.796799,1,,
9021014046037000,Djupsåsmosse,58.153723,12.749901,1,,
9021014046039000,Tumlebergs egendom,58.199806,12.832946,1,,
9021014046040000,Svenstorp,58.153556,12.847453,1,,
9021014046041000,Jonslund,58.158000,12.832413,1,,
9021014046047000,Kvarngatan,58.189243,12.721199,1,,
9021014046048000,Fåglum,58.125199,12.781352,1,,
9021014046049000,Lekåsa,58.146880,12.862945,1,,
9021014046050000,Nossegränd,58.185515,12.726763,1,,
9021014046051000,Fåglum Månsagården,58.145808,12.761718,1,,
9021014046052000,Ginza,58.129014,12.777565,1,,
9021014046053000,Västergårdsgatan,58.186556,12.732276,1,,
9021014046054000,Skaten,58.274409,12.681161,1,,
9021014052401000,Stålared,57.586120,13.415593,1,,
9021014052403000,Holmåkra,57.384796,13.294791,1,,
9021014052501000,Gundlabo,57.615775,13.488836,1,,
9021014052502000,Dalstorp kyrka,57.611203,13.503990,1,,
9021014052503000,Dalstorp torget,57.605849,13.510871,1,,
9021014052504000,Hjälmå,57.607212,13.508389,1,,
9021014052505000,Hagavägen,57.603489,13.521060,1,,
9021014052506000,Skogarp,57.601311,13.528428,1,,
9021014052507000,Kärr,57.612509,13.597562,1,,
9021014052508000,Ölsremma,57.633552,13.621472,1,,
9021014052509000,Ölsremma missionskyrka,57.621710,13.621368,1,,
9021014052511000,Sjötuna,57.447873,13.473970,1,,
9021014052512000,Ljungsarp,57.565302,13.581673,1,,
9021014052513000,Gölingstorp,57.572064,13.527234,1,,
9021014052514000,Nittorp industriväg,57.545965,13.489171,1,,
9021014052515000,Flathult,57.512393,13.525032,1,,
9021014052516000,Remmabo,57.496966,13.550467,1,,
9021014052517000,Grimsås,57.484091,13.551911,1,,
9021014052518000,Västra Ryda,57.526618,13.470966,1,,
9021014052519000,Algutstorp,57.514607,13.429981,1,,
9021014052520000,Brandsmo,57.506561,13.402418,1,,
9021014052521000,Ekåsen,57.641713,13.614462,1,,
9021014052522000,Södra Åsarp,57.553190,13.379185,1,,
9021014052523000,Björkängsgatan,57.480336,13.544955,1,,
9021014052524000,Grimsås by,57.472771,13.527879,1,,
9021014052525000,Äspås,57.467918,13.516236,1,,
9021014052526000,Mossebo kyrka,57.443381,13.457745,1,,
9021014052527000,Sparregatan,57.541102,13.355279,1,,
9021014052529000,Skogshult,57.603979,13.422682,1,,
9021014052531000,Knestorp,57.585822,13.526812,1,,
9021014052532000,Ryda,57.530910,13.472957,1,,
9021014052601000,Bystad,57.546180,13.328030,1,,
9021014052602000,Limmared station,57.535958,13.353539,1,,
9021014052603000,Parkgatan Limmared,57.531808,13.355614,1,,
9021014052604000,Blomstervägen,57.527052,13.349181,1,,
9021014052605000,Rosenlund,57.523964,13.345296,1,,
9021014052606000,Industrigatan,57.495802,13.340813,1,,
9021014052607000,Tranemo sporthall,57.488876,13.340827,1,,
9021014052608000,Tåstarpsgatan,57.485086,13.340315,1,,
9021014052609000,Fritidsgården,57.475594,13.265211,1,,
9021014052610000,Uddebo,57.472210,13.254332,1,,
9021014052611000,Källåsen,57.546337,13.364768,1,,
9021014052612000,Tranemo bussterminal,57.485126,13.351557,1,,
9021014052613000,Hagatorpet,57.472813,13.338187,1,,
9021014052615000,Tranängskolan,57.487525,13.343341,1,,
9021014052617000,Tranemo vårdcentral,57.480371,13.347968,1,,
9021014052621000,Kråketorpet,57.394443,13.291946,1,,
9021014052623000,Primo,57.535765,13.344928,1,,
9021014052701000,Västergärdet,57.588011,13.209390,1,,
9021014052702000,Ingestorp,57.596623,13.224411,1,,
9021014052703000,Oxelvägen,57.602190,13.237612,1,,
9021014052704000,Länghem,57.602409,13.244313,1,,
9021014052706000,Stakagården,57.595533,13.244109,1,,
9021014052707000,Kronogården,57.587755,13.230113,1,,
9021014052708000,Tingarör,57.582414,13.218931,1,,
9021014052709000,Platö,57.570364,13.236777,1,,
9021014052710000,Holm,57.567609,13.255101,1,,
9021014052711000,Kindsboda,57.557995,13.288541,1,,
9021014052713000,Grälebo,57.435559,13.447778,1,,
9021014052801000,Högalid,57.422539,13.288772,1,,
9021014052802000,Ambjörnarps centrum,57.421122,13.293585,1,,
9021014052803000,Genvägen,57.424174,13.288047,1,,
9021014052804000,Sjötofta,57.358048,13.289481,1,,
9021014052805000,Sjötofta kyrka,57.352247,13.286377,1,,
9021014052806000,Lidavägen,57.414010,13.287272,1,,
9021014052807000,Sävared,57.345592,13.274755,1,,
9021014052812000,Hulared,57.596176,13.420845,1,,
9021014052814000,Sävshults by,57.366324,13.291507,1,,
9021014052820000,Stommen,57.613059,13.428918,1,,
9021014052821000,Hjärtaredsvägen,57.606058,13.541876,1,,
9021014052822000,Gumpebovägen,57.523560,13.522711,1,,
9021014052826000,Nittorp by,57.575200,13.499113,1,,
9021014052827000,Horshagavägen,57.613034,13.586560,1,,
9021014052828000,Lidagården,57.569481,13.570643,1,,
9021014052829000,Åkerivägen,57.487825,13.357341,1,,
9021014052830000,Tyggesvedjan,57.464962,13.506319,1,,
9021014058108000,Stensjökyrkan,57.662918,12.033807,1,,
9021014060002000,Hagtjärn,59.046802,12.244120,1,,
9021014060003000,Majbergsdal,59.024972,12.243480,1,,
9021014060004000,Skåpakorset,59.016633,12.268489,1,,
9021014060005000,Knösteviken,59.011741,12.272152,1,,
9021014060006000,Bräckan,58.999621,12.270499,1,,
9021014060007000,Skåpafors,59.022892,12.289671,1,,
9021014060008000,Kroken,59.027282,12.295077,1,,
9021014060010000,Bengtsgården,59.027680,12.228501,1,,
9021014060012000,Björkåsen,59.044984,12.229252,1,,
9021014060013000,Industrigatan,59.040782,12.231892,1,,
9021014060022000,Dalia,59.029066,12.231945,1,,
9021014060023000,Bengtsfors kommunkontoret,59.029864,12.232735,1,,
9021014060024000,Dalslands Motor,59.037339,12.230146,1,,
9021014060025000,Televerket,59.045476,12.235019,1,,
9021014060026000,Skolmyrsgatan,59.046321,12.229981,1,,
9021014060029000,Bengtsfors busstation,59.030487,12.224022,1,,
9021014060100000,Vammerviken,59.227480,12.111268,1,,
9021014060101000,Gustavsfors affär,59.190915,12.109979,1,,
9021014060102000,Pensionärshemmet,59.188107,12.111372,1,,
9021014060103000,Koperud,59.167328,12.128632,1,,
9021014060104000,Kessviken,59.148229,12.173454,1,,
9021014060105000,Lofterud,59.140382,12.220354,1,,
9021014060106000,Lund,59.079856,12.254980,1,,
9021014060107000,Flatebyn,59.032440,12.310656,1,,
9021014060108000,Laxarby Trekanten,59.035361,12.329377,1,,
9021014060109000,Översidan,59.029828,12.339061,1,,
9021014060110000,Heden Laxarby,59.021635,12.372158,1,,
9021014060111000,Kråkviken,59.137039,12.196968,1,,
9021014060112000,Germundebyn,59.027882,12.400333,1,,
9021014060116000,Eketegen,59.234951,12.107795,1,,
9021014060117000,Skifors,59.135031,12.226872,1,,
9021014060122000,Känsbyn,59.176753,12.114379,1,,
9021014060123000,Skogstjärn,58.931220,12.172923,1,,
9021014060125000,Skåpafors folkets hus,59.022766,12.283669,1,,
9021014060201000,Stuput,58.990558,12.260440,1,,
9021014060202000,Billingsfors kyrka,58.987271,12.252466,1,,
9021014060203000,Billingsfors centrum,58.984504,12.249954,1,,
9021014060204000,Billingsfors station,58.981492,12.248175,1,,
9021014060205000,Dalhem,58.977942,12.246022,1,,
9021014060206000,Solbacken,58.974419,12.242648,1,,
9021014060207000,Brohögen,58.955047,12.230490,1,,
9021014060208000,Åsen norr,58.944651,12.213346,1,,
9021014060209000,Steneby vägkors,58.929797,12.212892,1,,
9021014060210000,Steneby bygdegård,58.924763,12.216131,1,,
9021014060211000,Lästvik,58.915298,12.222661,1,,
9021014060212000,Norebyn,58.930182,12.133537,1,,
9021014060214000,Karlsgärde,58.952124,12.242951,1,,
9021014060215000,Friluftsgården,58.950052,12.251168,1,,
9021014060216000,Finnekasen,58.939244,12.268213,1,,
9021014060217000,Sandviken,58.935703,12.277097,1,,
9021014060218000,Kampudden,58.933535,12.292842,1,,
9021014060219000,Fabriksvägen,58.928089,12.295771,1,,
9021014060220000,Stenebyskolan,58.923527,12.307110,1,,
9021014060221000,Dals Långed centrum,58.921547,12.313884,1,,
9021014060222000,Kolarevägen,58.920944,12.318987,1,,
9021014060223000,Björke,58.924704,12.334421,1,,
9021014060224000,Gullungebyn,58.922038,12.389584,1,,
9021014060225000,Norra Lidtjärn,58.936500,12.389378,1,,
9021014060226000,Långbron,58.936620,12.286968,1,,
9021014060229000,Slöjdarevägen,58.922755,12.324459,1,,
9021014060232000,Stenebyvägen,58.933303,12.291591,1,,
9021014060243000,Steneby kyrka,58.938872,12.204963,1,,
9021014060301000,Knektevallen,58.885396,12.211105,1,,
9021014060302000,Ödskölt,58.869625,12.196551,1,,
9021014060303000,Alltorp,58.857234,12.177608,1,,
9021014060304000,Ön,58.846816,12.100033,1,,
9021014060305000,Sjöbäcken,58.836111,12.121174,1,,
9021014060307000,Bäckefors terminal,58.805327,12.157756,1,,
9021014060309000,Bäckefors industriområde,58.811591,12.147215,1,,
9021014060311000,Ljungby,58.795319,12.150144,1,,
9021014060312000,Björtveten,58.787080,12.182096,1,,
9021014060313000,Bäcken,58.777496,12.197114,1,,
9021014060314000,Arket,58.767946,12.213350,1,,
9021014060316000,Böviken,58.879007,12.214014,1,,
9021014060318000,Dalslands sjukhus väg 166,58.799281,12.163532,1,,
9021014060325000,Tisselskog vägskäl,58.909976,12.387142,1,,
9021014060350000,Nian,58.822358,12.139174,1,,
9021014060354000,Fagerliden,58.839020,12.155932,1,,
9021014060404000,Gustavsfors kanalen,59.194848,12.109822,1,,
9021014060405000,Bäckefors norra,58.808249,12.152148,1,,
9021014061302000,Övre borgen,58.571261,12.491041,1,,
9021014061303000,Rävelyckan,58.565105,12.505274,1,,
9021014061304000,Hagen norra,58.564339,12.514924,1,,
9021014061305000,Bodane,58.566321,12.546495,1,,
9021014061306000,Torp,58.578238,12.553712,1,,
9021014061307000,Torp norra,58.581852,12.557606,1,,
9021014061308000,Högstorp,58.587711,12.563823,1,,
9021014061309000,Tjäregraven,58.635394,12.591449,1,,
9021014061310000,Spången,58.774159,12.497871,1,,
9021014061311000,Västanväga,58.655798,12.504698,1,,
9021014061312000,Dalbergså korset,58.589891,12.569316,1,,
9021014061313000,Nygårdsstoppet,58.586854,12.473371,1,,
9021014061314000,Ekebro,58.610802,12.541622,1,,
9021014061315000,Björkhemsstoppet,58.620157,12.595856,1,,
9021014061316000,Finnetorpskorset,58.633612,12.570775,1,,
9021014061317000,Hagen skuterud,58.634264,12.543143,1,,
9021014061318000,Brakarebol,58.671290,12.507110,1,,
9021014061319000,Krynebol,58.634498,12.505822,1,,
9021014061320000,Näs,58.659149,12.552394,1,,
9021014061322000,Slottet,58.607961,12.588016,1,,
9021014061323000,Guttvik udden,58.759605,12.490531,1,,
9021014061324000,Korsgården,58.672631,12.501649,1,,
9021014061325000,Järn östra,58.655019,12.562011,1,,
9021014061326000,Rödjan,58.594757,12.473162,1,,
9021014061327000,Åsens skola,58.809859,12.418649,1,,
9021014061328000,Vallarna vägkors,58.580932,12.462856,1,,
9021014061329000,Smedsbol,58.655059,12.456854,1,,
9021014061330000,Adamserud,58.601405,12.413480,1,,
9021014061331000,Erikstad kyrka,58.609089,12.399326,1,,
9021014061332000,Gunvarbyn,58.657718,12.281089,1,,
9021014061333000,Åsmule,58.667543,12.287241,1,,
9021014061334000,Källsviken,58.729583,12.254262,1,,
9021014061335000,Lapperud,58.723936,12.286289,1,,
9021014061336000,Gillesbyn,58.577427,12.417262,1,,
9021014061337000,Södra Hamrekorset,58.635501,12.449730,1,,
9021014061338000,Erikstad södra,58.629857,12.413719,1,,
9021014061340000,Gerdsrud 13,58.688110,12.428093,1,,
9021014061341000,Skalsbyn,58.658784,12.374366,1,,
9021014061342000,Hjärtungens lantbruk,58.661465,12.375440,1,,
9021014061343000,Örnäs,58.632658,12.344795,1,,
9021014061344000,Dalskog kyrka,58.746582,12.288535,1,,
9021014061345000,Svecklingeby kvarn,58.666017,12.398692,1,,
9021014061346000,Håltane,58.664775,12.466150,1,,
9021014061347000,Råskog,58.635810,12.393444,1,,
9021014061348000,Gundlebol Backen,58.645873,12.319089,1,,
9021014061349000,Tegenkorsen,58.767297,12.347446,1,,
9021014061350000,Källhult,58.781104,12.335075,1,,
9021014061351000,Brännängsvägen,58.792033,12.420042,1,,
9021014061353000,Eken i Hult,58.696180,12.345381,1,,
9021014061354000,Katteberg,58.628818,12.295931,1,,
9021014061355000,Ingevalds Berga,58.652359,12.327678,1,,
9021014061356000,Darkerud stampen,58.698179,12.289537,1,,
9021014061357000,Vena kvarn,58.579767,12.407163,1,,
9021014061358000,Högsbyn,58.715424,12.290890,1,,
9021014061359000,Grösäter,58.649670,12.345347,1,,
9021014061360000,Erikstad Björnebol,58.632229,12.410580,1,,
9021014061361000,Våtekärr,58.642144,12.452141,1,,
9021014061362000,Ör Högen,58.621814,12.329701,1,,
9021014061363000,Erikstad Berg,58.601474,12.428555,1,,
9021014061364000,Erikstad Hede,58.637193,12.407662,1,,
9021014061365000,Upperud kvarnen,58.810269,12.434724,1,,
9021014061366000,Gullesbyn,58.624318,12.287062,1,,
9021014061367000,Knipestaden,58.634230,12.259531,1,,
9021014061368000,Barrud,58.638904,12.346147,1,,
9021014061369000,Glashyttan,58.664237,12.404896,1,,
9021014061370000,Brännängsvägen södra,58.788696,12.418974,1,,
9021014061371000,Svanefjordsvägen,58.795120,12.515940,1,,
9021014061372000,Ransbergsvägen,58.783552,12.510122,1,,
9021014061373000,Nygården,58.591197,12.498804,1,,
9021014061374000,Björnebol östra,58.632050,12.430753,1,,
9021014061375000,Blikserud norra,58.614543,12.471338,1,,
9021014061376000,Åker,58.646872,12.505439,1,,
9021014061377000,Hallersbyn,58.800288,12.328548,1,,
9021014061378000,Anolfsbyn,58.770744,12.397074,1,,
9021014061379000,Skåkerud,58.628432,12.412963,1,,
9021014061380000,Surbärskullen,58.650467,12.303738,1,,
9021014061381000,Söbyn,58.613935,12.496283,1,,
9021014061382000,Gunnebyn,58.678597,12.471771,1,,
9021014061383000,Trollungebyn,58.788899,12.328315,1,,
9021014061384000,Årbol,58.746918,12.347426,1,,
9021014061385000,Forsebol,58.688360,12.290938,1,,
9021014061386000,Vena Säby,58.587309,12.383425,1,,
9021014061501000,Kambol,58.678775,12.409302,1,,
9021014061502000,Jonsered,58.671146,12.405279,1,,
9021014061503000,Svecklingebyn,58.667255,12.404827,1,,
9021014061504000,Härlogsbyn,58.658842,12.409607,1,,
9021014061505000,Brunnshult,58.648938,12.414841,1,,
9021014061506000,Kronäckerud,58.643926,12.414040,1,,
9021014061507000,Äckerud,58.636574,12.412171,1,,
9021014061508000,Erikstad,58.632650,12.413202,1,,
9021014061509000,Mossebol,58.623625,12.416574,1,,
9021014061510000,Göbyn,58.615984,12.415519,1,,
9021014061511000,Bergs kullar,58.605823,12.416011,1,,
9021014061512000,Kuseruds gård,58.596392,12.410424,1,,
9021014061513000,Vena,58.583292,12.398436,1,,
9021014061514000,Hede,58.577942,12.393380,1,,
9021014061515000,Magnersbyn,58.672189,12.471200,1,,
9021014061516000,Järn,58.667327,12.496923,1,,
9021014061517000,Sävarebol,58.638568,12.504894,1,,
9021014061518000,Grinstad,58.624209,12.509001,1,,
9021014061519000,Åsebro skola,58.605049,12.482956,1,,
9021014061520000,Lillebyn,58.572026,12.479204,1,,
9021014061522000,Grinstad kyrka,58.623229,12.511741,1,,
9021014061601000,Nordkärr,58.730905,12.455622,1,,
9021014061602000,Vässby,58.722942,12.454597,1,,
9021014061603000,Vässby Ö,58.716944,12.455743,1,,
9021014061605000,Lindstorp,58.713351,12.414280,1,,
9021014061607000,Bröttorp,58.707388,12.432404,1,,
9021014061608000,Västerråda,58.702837,12.446603,1,,
9021014061609000,Dalslandsgatan,58.696803,12.450462,1,,
9021014061610000,Gerdsrud,58.690443,12.436033,1,,
9021014061611000,Granliden,58.681279,12.413188,1,,
9021014061612000,Läperud,58.685892,12.420560,1,,
9021014061613000,Svennungerud,58.688317,12.430356,1,,
9021014061614000,Österrådaplan,58.698571,12.456237,1,,
9021014061615000,Nordalsskolan,58.704174,12.453808,1,,
9021014061616000,Mellerud station,58.701947,12.463864,1,,
9021014061617000,Rådaskolan,58.703200,12.453154,1,,
9021014061618000,Fagerlid,58.696786,12.467329,1,,
9021014061619000,Vintergatan,58.691953,12.485716,1,,
9021014061620000,Vita Sannar,58.692726,12.489440,1,,
9021014061621000,Sjögatan,58.691946,12.467939,1,,
9021014061622000,Ängenäsgatan,58.690454,12.475728,1,,
9021014061623000,Odengatan,58.694555,12.465816,1,,
9021014061624000,Kvarnkullen,58.697405,12.464556,1,,
9021014061625000,Viaduktsgatan,58.696403,12.462489,1,,
9021014061627000,Holms kyrka,58.712219,12.469938,1,,
9021014061628000,Sunnanå cykelvägen,58.707655,12.483237,1,,
9021014061630000,Qvantenburgs säteri,58.595963,12.573008,1,,
9021014061633000,Bolstad,58.577146,12.476359,1,,
9021014061634000,Västergården,58.608226,12.391728,1,,
9021014061635000,Ör Säter,58.631641,12.265403,1,,
9021014061652000,Strävåsliden,58.711028,12.354768,1,,
9021014061653000,Kroppefjällsvägen,58.708864,12.352636,1,,
9021014061654000,Åsmule vägskäl,58.692639,12.341008,1,,
9021014061655000,Intakan,58.703495,12.352853,1,,
9021014061656000,Rud,58.684998,12.341693,1,,
9021014061658000,Frestersbyn,58.678058,12.338961,1,,
9021014061659000,Svalungebyn,58.668376,12.341769,1,,
9021014061660000,Örs kyrka,58.664252,12.341807,1,,
9021014061661000,Örsberg,58.656094,12.341376,1,,
9021014061662000,Assarebyn,58.623462,12.349403,1,,
9021014061663000,Myckeläng,58.600735,12.348421,1,,
9021014061701000,Liane,58.758981,12.248639,1,,
9021014061702000,Stora Halängen,58.754800,12.258221,1,,
9021014061703000,Dalskog,58.748276,12.289215,1,,
9021014061705000,Skogsbol,58.726103,12.362055,1,,
9021014061706000,Villavägen,58.718861,12.357715,1,,
9021014061707000,Dals Rostock affär,58.713978,12.356651,1,,
9021014061708000,Backa,58.727647,12.370352,1,,
9021014061709000,Gunnarsnäs kyrka,58.726513,12.386178,1,,
9021014061710000,Östevatten,58.718077,12.403099,1,,
9021014061711000,Backamyren,58.734083,12.355540,1,,
9021014061720000,Gatan,58.684633,12.372939,1,,
9021014061721000,Kroppefjäll,58.706836,12.340978,1,,
9021014061722000,Karolinerskolan,58.713000,12.352321,1,,
9021014061724000,Holmsgatan,58.707232,12.454846,1,,
9021014061726000,Norra Hamrane,58.647122,12.453967,1,,
9021014061729000,Jakobsbyn,58.644424,12.612698,1,,
9021014061730000,Näs stenlyckan,58.661552,12.539879,1,,
9021014061733000,Kårebyn,58.565638,12.531943,1,,
9021014061735000,Ryr sjövik,58.818037,12.505033,1,,
9021014061736000,Ryr,58.795890,12.475066,1,,
9021014061739000,Melleruds handelsområde,58.705273,12.450292,1,,
9021014061801000,Håverud akvedukt,58.820539,12.409088,1,,
9021014061802000,Sundserud,58.810194,12.409808,1,,
9021014061803000,Åsensbruk föreningshus,58.807154,12.418174,1,,
9021014061804000,Åsensbruk affär,58.806031,12.422241,1,,
9021014061805000,Åsensbruk,58.800679,12.425062,1,,
9021014061806000,Bränna,58.797544,12.425571,1,,
9021014061807000,Bränna församlingshem,58.793238,12.423207,1,,
9021014061808000,Bränna södra,58.786552,12.417334,1,,
9021014061809000,Eriksbyn norra,58.783398,12.412844,1,,
9021014061810000,Torgrinsbyn norra,58.771427,12.412696,1,,
9021014061811000,Ingribybro,58.762687,12.415076,1,,
9021014061812000,Törsbyn,58.752412,12.429636,1,,
9021014061813000,Lilla Gatan,58.740849,12.434673,1,,
9021014061814000,Källeberg,58.737000,12.441731,1,,
9021014061815000,Håverud herrgård,58.821904,12.416194,1,,
9021014061816000,Bäcken,58.819369,12.426031,1,,
9021014061817000,Linddalen,58.816680,12.428604,1,,
9021014061818000,Upperud slussen,58.814004,12.436388,1,,
9021014061819000,Stubben,58.785567,12.429625,1,,
9021014061820000,Skållerud Kyrka,58.781681,12.427628,1,,
9021014061823000,Svärdsviken,58.765589,12.490082,1,,
9021014061824000,Dalängen,58.805956,12.526715,1,,
9021014061825000,Ransberg,58.796158,12.521804,1,,
9021014061826000,Köpmannebro,58.780626,12.508393,1,,
9021014061827000,Kärrkil,58.814206,12.523529,1,,
9021014061828000,Framnäs,58.734402,12.460291,1,,
9021014061829000,Linderud,58.741828,12.476947,1,,
9021014061830000,Ingribyn södra,58.757630,12.425049,1,,
9021014061831000,Ingribyn norra,58.758555,12.420502,1,,
9021014061832000,Torgrinsbyn södra,58.769302,12.413840,1,,
9021014061833000,Eriksbyn södra,58.777368,12.410559,1,,
9021014061834000,Edsvägen,58.815887,12.408743,1,,
9021014061835000,Håverud paviljong,58.824222,12.412175,1,,
9021014061836000,Dalsland museum,58.806899,12.436047,1,,
9021014061837000,Byvägen,58.790881,12.428471,1,,
9021014061839000,Rostocks vägskäl,58.728008,12.365142,1,,
9021014061840000,Tångebo,58.749412,12.313833,1,,
9021014061841000,Bengterud,58.750489,12.327149,1,,
9021014061842000,Årbols vägskäl,58.740079,12.350885,1,,
9021014061900000,Mellerud station (tåg),58.701275,12.464430,1,,
9021014061901000,Holmsgatan östra,58.707297,12.460884,1,,
9021014062301000,Äsperöd södra,58.158320,12.120303,1,,
9021014062302000,Graveröd,58.155722,12.119867,1,,
9021014062303000,Löddestorp,58.152091,12.118665,1,,
9021014062304000,Bondeström,58.148018,12.116989,1,,
9021014062305000,Strömsskolan,58.142905,12.109075,1,,
9021014062306000,Ströms korsväg,58.138784,12.109239,1,,
9021014062307000,Strömkullen,58.146034,12.113512,1,,
9021014062308000,Kommunvägen,58.135017,12.109969,1,,
9021014062309000,Sundören,58.132214,12.110026,1,,
9021014062311000,Berg Östravägen,58.130215,12.110613,1,,
9021014062312000,Bergsåsen,58.126925,12.111406,1,,
9021014062313000,Holmen,58.121443,12.113379,1,,
9021014062314000,Sannersbyn norra,58.117599,12.115864,1,,
9021014062315000,Sannersbyn södra,58.114831,12.114678,1,,
9021014062316000,Kullarne,58.110419,12.115867,1,,
9021014062318000,Borg,58.105670,12.116115,1,,
9021014062319000,Ucklumsvägen,58.100006,12.117183,1,,
9021014062320000,Västerlanda norra,58.096604,12.120140,1,,
9021014062321000,Västerlanda kyrka,58.090140,12.121255,1,,
9021014062322000,Ballabo,58.087572,12.124143,1,,
9021014062323000,Molinsgatan,58.138508,12.128429,1,,
9021014062325000,Skansenvägen,58.143261,12.131989,1,,
9021014062327000,Fuxerna,58.126534,12.134693,1,,
9021014062329000,Södra Vägen,58.131431,12.127062,1,,
9021014062330000,Lilla Edet busstation,58.134253,12.125476,1,,
9021014062331000,Göta,58.107264,12.149416,1,,
9021014062333000,Glässnäs,58.095219,12.154518,1,,
9021014062334000,Sollum södra,58.182720,12.117121,1,,
9021014062335000,Hjärtums korsväg,58.180747,12.115733,1,,
9021014062336000,Kärrsbacken vändplats,58.174883,12.087086,1,,
9021014062337000,Kärrsbacken,58.177066,12.094103,1,,
9021014062338000,Hjärtumskolan,58.181374,12.107686,1,,
9021014062339000,Envägen,58.182443,12.112056,1,,
9021014062340000,Klockarelunden,58.174844,12.110223,1,,
9021014062341000,Brattorp,58.173003,12.111887,1,,
9021014062342000,Uttersåker,58.166330,12.116424,1,,
9021014062343000,Äsperöd norra,58.164320,12.117369,1,,
9021014062344000,Torpabron,58.197384,12.151455,1,,
9021014062345000,Rudet,58.181785,12.142275,1,,
9021014062348000,Tösslandagården,58.168812,12.139234,1,,
9021014062353000,Uttersåker norra,58.168712,12.116453,1,,
9021014062354000,Vesten,58.237812,12.180436,1,,
9021014062355000,Lilla Edet centrum,58.137149,12.127944,1,,
9021014062501000,Åkerström,58.257592,12.225222,1,,
9021014062502000,Intagan norra,58.253221,12.210170,1,,
9021014062503000,Intagan södra,58.249157,12.203518,1,,
9021014062504000,Hålleröd,58.246096,12.193021,1,,
9021014062505000,Vesten norra,58.238955,12.183770,1,,
9021014062506000,Smådala,58.235742,12.176221,1,,
9021014062507000,Vesten södra,58.233362,12.168999,1,,
9021014062508000,Vestens gård,58.231062,12.163356,1,,
9021014062509000,Brattås,58.228325,12.154239,1,,
9021014062510000,Getlycke,58.225210,12.148765,1,,
9021014062511000,Hällerna,58.220192,12.144978,1,,
9021014062512000,Sanna gård,58.218647,12.143824,1,,
9021014062513000,Sanna skola,58.214441,12.141387,1,,
9021014062514000,Utby korsväg,58.211591,12.136541,1,,
9021014062515000,Majorsgården,58.208066,12.130049,1,,
9021014062516000,Torp övre,58.203946,12.125053,1,,
9021014062517000,Torps gård,58.196702,12.117860,1,,
9021014062518000,Sollum,58.190411,12.117485,1,,
9021014062520000,Äsperöd,58.161180,12.119205,1,,
9021014062521000,Hjärtums kyrkogård,58.179569,12.100228,1,,
9021014062602000,Furuhäll,58.076783,12.125927,1,,
9021014062603000,Västerlanda bygdegård,58.074318,12.128195,1,,
9021014062604000,Lusseröd,58.067165,12.130194,1,,
9021014062605000,Skörsbo norra,58.063483,12.133135,1,,
9021014062606000,Skörsbo södra,58.058522,12.135923,1,,
9021014062607000,Groröd norra,58.053438,12.138823,1,,
9021014062608000,Groröd södra,58.051522,12.139128,1,,
9021014062609000,Svenseröd norra,58.049625,12.139890,1,,
9021014062610000,Svenseröd södra,58.047293,12.140518,1,,
9021014062611000,Amneröd,58.041695,12.136965,1,,
9021014062612000,Torskog norra,58.032610,12.137794,1,,
9021014062613000,Torskog södra,58.029187,12.138203,1,,
9021014062614000,Bäck,58.023667,12.136154,1,,
9021014062615000,Skår norra,58.012766,12.129762,1,,
9021014062616000,Bäck södra,58.017934,12.132988,1,,
9021014062620000,Korsvägen,58.093171,12.087356,1,,
9021014062621000,Norgård,58.095984,12.109870,1,,
9021014062703000,Kärra,58.084319,12.158967,1,,
9021014062704000,Tunge,58.079739,12.155090,1,,
9021014062706000,Tungevägen,58.070569,12.151715,1,,
9021014062708000,Garns Hållplats,58.062176,12.149349,1,,
9021014062709000,Eckerna norra,58.058505,12.147963,1,,
9021014062710000,Eckerna södra,58.052530,12.148388,1,,
9021014062712000,Skattegården södra,58.045026,12.150817,1,,
9021014062713000,Lödöse museum,58.034803,12.152597,1,,
9021014062714000,S:t Peders väg,58.028904,12.152829,1,,
9021014062715000,Lödöse fotbollsplan,58.024838,12.154659,1,,
9021014062716000,Tingberg,58.020333,12.156576,1,,
9021014062717000,Lödöse södra station,58.014960,12.163454,1,,
9021014062719000,Soläng,58.032880,12.161441,1,,
9021014062722000,Hönebäck norra,58.041087,12.180143,1,,
9021014062724000,Näset,58.048836,12.190414,1,,
9021014062726000,Skiltorp,58.053418,12.199750,1,,
9021014062728000,Nygård,58.055421,12.218140,1,,
9021014062731000,Torebacken,58.071172,12.243643,1,,
9021014062732000,Simontorp,58.076395,12.245768,1,,
9021014062733000,Kattunga,58.066322,12.237099,1,,
9021014062734000,Boda,58.081914,12.248345,1,,
9021014062737000,Prässebo badplats,58.098374,12.271569,1,,
9021014062738000,Prässebo affär,58.100400,12.275132,1,,
9021014062740000,Prässebo vändplats,58.104246,12.288181,1,,
9021014062742000,Hålbacka,58.093757,12.261638,1,,
9021014062744000,Lödöse centrum,58.033406,12.153639,1,,
9021014062746000,Hålandavägen,58.056627,12.227252,1,,
9021014062747000,Strömsskolan Kungälvsvägen,58.141152,12.109030,1,,
9021014062748000,Västersjön västra,58.087654,12.037153,1,,
9021014062749000,Västersjön,58.090996,12.046397,1,,
9021014062751000,Ballabo södra,58.081093,12.123748,1,,
9021014062752000,Amneröd norra,58.044664,12.138677,1,,
9021014063001000,Ginkalunda gård,57.538580,12.682252,1,,
9021014063002000,Gamla Rydalsvägen,57.517887,12.694136,1,,
9021014063003000,Vrågatan,57.513221,12.694464,1,,
9021014063004000,Prästgatan,57.510868,12.696983,1,,
9021014063005000,Harpebo,57.530430,12.736227,1,,
9021014063006000,Kinnahult,57.527697,12.730683,1,,
9021014063007000,Gullbergsvägen,57.525940,12.726400,1,,
9021014063008000,Nydal,57.523099,12.720831,1,,
9021014063009000,Horndal,57.521095,12.717349,1,,
9021014063010000,Äpplegatan,57.517744,12.711930,1,,
9021014063011000,Stommenskolan,57.514741,12.707359,1,,
9021014063013000,Snickaren,57.511672,12.706099,1,,
9021014063014000,Muraren,57.510274,12.700427,1,,
9021014063015000,Kommunhuset,57.508453,12.697620,1,,
9021014063017000,Kinna resecentrum,57.505793,12.697136,1,,
9021014063018000,Häggådalen,57.504268,12.701723,1,,
9021014063019000,Vallås,57.501225,12.698893,1,,
9021014063020000,Hede säteri,57.499504,12.697199,1,,
9021014063021000,Hedängsvägen,57.494193,12.694713,1,,
9021014063022000,Bomanna säte,57.491459,12.695553,1,,
9021014063023000,Ängsvägen,57.487910,12.697562,1,,
9021014063025000,Örby centrum,57.482623,12.701782,1,,
9021014063026000,Skene skog,57.509602,12.580423,1,,
9021014063027000,Krokslid,57.507787,12.598758,1,,
9021014063028000,Vårkulla,57.499321,12.616223,1,,
9021014063029000,Dala,57.480022,12.603100,1,,
9021014063030000,Berghem,57.467684,12.593668,1,,
9021014063031000,Gästgivaregården,57.490603,12.631427,1,,
9021014063032000,Varbergsvägen 72,57.490568,12.636719,1,,
9021014063033000,Sjukhuset Skene,57.492087,12.648269,1,,
9021014063034000,Luregatan,57.493055,12.653948,1,,
9021014063035000,Assberg,57.495992,12.655779,1,,
9021014063036000,Kunskapens hus,57.496675,12.665999,1,,
9021014063037000,Litserhult,57.400477,12.422982,1,,
9021014063038000,Näs,57.503288,12.676177,1,,
9021014063039000,Viskavallen,57.504309,12.679902,1,,
9021014063041000,Kinna centrum,57.507186,12.692724,1,,
9021014063042000,Skene torget,57.489523,12.642326,1,,
9021014063043000,Vallgatan,57.487983,12.644562,1,,
9021014063044000,Hedbovägen,57.485904,12.647315,1,,
9021014063045000,Örestensvägen,57.481653,12.652093,1,,
9021014063046000,Habylid,57.479609,12.662484,1,,
9021014063047000,Anderslid,57.480103,12.669259,1,,
9021014063048000,Forshallsvägen,57.481190,12.674145,1,,
9021014063049000,Veståker,57.481735,12.679832,1,,
9021014063051000,Bosgården,57.481571,12.688985,1,,
9021014063052000,Prästgården,57.481507,12.697748,1,,
9021014063053000,Örby smedja,57.478434,12.704180,1,,
9021014063054000,Örbyhallen,57.475803,12.705279,1,,
9021014063055000,Hanatorp camping,57.473961,12.705295,1,,
9021014063056000,Öresjön,57.469528,12.712994,1,,
9021014063057000,Krok nedre,57.466992,12.714370,1,,
9021014063058000,Hedbo,57.483791,12.643347,1,,
9021014063059000,Kovra,57.462681,12.718958,1,,
9021014063060000,Ljungavägen,57.476310,12.712904,1,,
9021014063061000,Attared,57.468317,12.748058,1,,
9021014063065000,Skene busstation,57.488125,12.647856,1,,
9021014063070000,Björkbacken,57.500097,12.722933,1,,
9021014063072000,Arena center,57.505318,12.716965,1,,
9021014063074000,Hajomsvägen,57.475081,12.593299,1,,
9021014063099000,Blötasik,57.579313,12.458543,1,,
9021014063100000,Björlanda gård,57.585021,12.457760,1,,
9021014063102000,Råryggen,57.605333,12.438328,1,,
9021014063103000,Björlanda,57.587114,12.458585,1,,
9021014063105000,Strömmaskolan,57.563728,12.455750,1,,
9021014063107000,Hede Sätila,57.549605,12.435941,1,,
9021014063108000,Sätila centrum,57.542060,12.433480,1,,
9021014063109000,Sätila kyrka,57.539617,12.436192,1,,
9021014063110000,Maderna,57.539615,12.442325,1,,
9021014063111000,Lurekullen,57.540651,12.454886,1,,
9021014063113000,Almered,57.541162,12.484413,1,,
9021014063114000,Sjölyckan,57.544247,12.492657,1,,
9021014063118000,Härsjön,57.578159,12.500244,1,,
9021014063119000,Stjärnhult,57.570828,12.508073,1,,
9021014063121000,Sandvad,57.554449,12.522365,1,,
9021014063123000,Stomshöjd,57.557666,12.537963,1,,
9021014063124000,Hyssna gamla kyrka,57.556535,12.531603,1,,
9021014063125000,Hyssna handel,57.548604,12.532240,1,,
9021014063126000,Bläsebo,57.543707,12.534108,1,,
9021014063127000,Bonared,57.537800,12.531232,1,,
9021014063128000,Stenabo,57.533019,12.533026,1,,
9021014063130000,Hjorttorps Hede,57.520319,12.546727,1,,
9021014063131000,Hjorttorp,57.516360,12.559919,1,,
9021014063134000,Tostared Kullavägen,57.466550,12.365329,1,,
9021014063135000,Tostared,57.468297,12.373225,1,,
9021014063137000,Sandryd,57.476873,12.407226,1,,
9021014063138000,Edareds bro,57.474467,12.450501,1,,
9021014063139000,Fotskäl Almäng,57.471929,12.478000,1,,
9021014063140000,Fotskäl mejeriet,57.470681,12.490679,1,,
9021014063141000,Fotskäls kyrka,57.471961,12.499948,1,,
9021014063142000,Mellby,57.477689,12.515589,1,,
9021014063143000,Hajoms snickeri,57.494847,12.530362,1,,
9021014063144000,Hajoms kyrka,57.504377,12.549467,1,,
9021014063146000,Sätila Bua,57.540461,12.473148,1,,
9021014063147000,Kulla,57.457485,12.345305,1,,
9021014063148000,Kärra,57.597786,12.447697,1,,
9021014063149000,Svanshult,57.510967,12.321131,1,,
9021014063152000,Skephultsvägen,57.538415,12.802634,1,,
9021014063154000,Lyckhem,57.471040,12.730545,1,,
9021014063155000,Grind,57.470366,12.756138,1,,
9021014063156000,Hyltenäsvägen,57.475105,12.773077,1,,
9021014063157000,Ekåsen,57.481443,12.815866,1,,
9021014063166000,Falghultsvägen,57.435060,12.755601,1,,
9021014063167000,Kvarnhagen,57.568576,12.824227,1,,
9021014063168000,Gullberg,57.513010,12.741430,1,,
9021014063172000,Gunnagård,57.580701,12.357179,1,,
9021014063201000,Ryds gård,57.560685,12.698971,1,,
9021014063203000,Rydal,57.555567,12.695232,1,,
9021014063204000,Svalgränd,57.550338,12.687890,1,,
9021014063205000,Ginkalunda,57.541387,12.681990,1,,
9021014063206000,Salgutsered,57.540783,12.751376,1,,
9021014063207000,Nitarevägen,57.551467,12.776792,1,,
9021014063208000,Gärdebo,57.555981,12.784090,1,,
9021014063209000,Fritsla station,57.558330,12.789965,1,,
9021014063211000,Fridhem,57.562464,12.806000,1,,
9021014063212000,Tyngsrydsvägen,57.565462,12.814581,1,,
9021014063213000,Ramslätt,57.570340,12.831748,1,,
9021014063214000,Stångared,57.473227,12.768005,1,,
9021014063215000,Haratången,57.478908,12.786992,1,,
9021014063216000,Björkebo,57.493550,12.852741,1,,
9021014063217000,Hunnaryd,57.493965,12.861812,1,,
9021014063218000,Linnekullevägen,57.459282,12.348310,1,,
9021014063220000,Solvik,57.456863,12.703932,1,,
9021014063221000,Töresvik,57.424791,12.680756,1,,
9021014063222000,Brastorp norra,57.365142,12.729058,1,,
9021014063223000,Kårte,57.388622,12.700830,1,,
9021014063224000,Fönhult,57.387255,12.723547,1,,
9021014063225000,Redslegården,57.382983,12.736257,1,,
9021014063226000,Hultaberg,57.384229,12.758226,1,,
9021014063227000,Gigered,57.393147,12.774640,1,,
9021014063228000,Börshult,57.394574,12.793461,1,,
9021014063229000,Brokvarnsvägen,57.399401,12.793021,1,,
9021014063230000,Kärra nedre,57.412637,12.774124,1,,
9021014063231000,Kållared,57.430678,12.760301,1,,
9021014063232000,Stentorpet,57.442091,12.743221,1,,
9021014063233000,Grevakila,57.449797,12.730495,1,,
9021014063234000,Jonsdal,57.454439,12.723839,1,,
9021014063235000,Lindäng,57.459033,12.721003,1,,
9021014063236000,Palmgrens väg,57.470468,12.485423,1,,
9021014063237000,Bönhultsvägen,57.472053,12.471653,1,,
9021014063238000,Vilg,57.471545,12.458911,1,,
9021014063239000,Edeberga,57.474602,12.435462,1,,
9021014063240000,Rud,57.475541,12.392290,1,,
9021014063241000,Östra Kulla,57.463266,12.359144,1,,
9021014063242000,Slätthultsvägen,57.402833,12.841722,1,,
9021014063243000,Lilla Backa,57.392322,12.852858,1,,
9021014063244000,Hylte,57.402382,12.881317,1,,
9021014063245000,Broken,57.381573,12.742317,1,,
9021014063246000,Fjällåsen,57.350235,12.870958,1,,
9021014063247000,Mjöasjö,57.363111,12.865091,1,,
9021014063250000,Horred brandstation,57.359576,12.482805,1,,
9021014063260000,Rådal,57.391750,12.520477,1,,
9021014063301000,Backen,57.446185,12.736019,1,,
9021014063302000,Glumse,57.421612,12.768966,1,,
9021014063303000,Två Skyttlar,57.451413,12.698723,1,,
9021014063304000,Sund,57.436852,12.680875,1,,
9021014063305000,Tån,57.415374,12.683716,1,,
9021014063306000,Svansjö Mosse,57.404729,12.675148,1,,
9021014063307000,Horredsvägen Svansjö,57.396908,12.669585,1,,
9021014063308000,Torestorp skola,57.389184,12.676649,1,,
9021014063309000,Öxabäcksvägen,57.388149,12.679959,1,,
9021014063310000,Svans affär,57.384540,12.678657,1,,
9021014063311000,Hemmingstorp,57.369899,12.712863,1,,
9021014063312000,Brastorp,57.362823,12.733042,1,,
9021014063313000,Marknadsplatsen Skållared,57.353002,12.732035,1,,
9021014063314000,Älekulla kyrka,57.345124,12.725740,1,,
9021014063316000,Brokvarn,57.400515,12.786878,1,,
9021014063317000,Öxabäck Torestorpsvägen,57.394063,12.804808,1,,
9021014063318000,Öxabäck,57.396474,12.810639,1,,
9021014063319000,Strömma affär,57.402643,12.851072,1,,
9021014063322000,Amundagärde,57.396674,12.802505,1,,
9021014063323000,Kasthallsvägen,57.511222,12.720971,1,,
9021014063324000,Hulatorp,57.440542,12.555222,1,,
9021014063325000,Kila,57.453499,12.577480,1,,
9021014063400000,Skene station,57.488381,12.649509,1,,
9021014063401000,Lekvadsvägen,57.460252,12.589422,1,,
9021014063402000,Björketorps station,57.427508,12.523756,1,,
9021014063403000,Gärdet,57.421162,12.521369,1,,
9021014063404000,Laggaregården,57.409087,12.515558,1,,
9021014063405000,Bua,57.399757,12.519603,1,,
9021014063406000,Sundholmen,57.376068,12.511820,1,,
9021014063407000,Horred Ekås,57.355767,12.477463,1,,
9021014063411000,Horred station,57.353193,12.477274,1,,
9021014063412000,Horred station (tåg),57.353245,12.477171,1,,
9021014063413000,Assberg station,57.494454,12.668828,1,,
9021014063415000,Heden,57.437609,12.546736,1,,
9021014063417000,Kinna station,57.506007,12.698024,1,,
9021014063418000,Berghem station,57.467420,12.598706,1,,
9021014063423000,Elingärde,57.366199,12.426385,1,,
9021014063502000,Sätila tappen,57.544882,12.433482,1,,
9021014063505000,Lahallsvägen,57.376009,12.695631,1,,
9021014063506000,Backåkravägen,57.567552,12.422755,1,,
9021014063507000,Smälteryds vägskäl,57.544091,12.419415,1,,
9021014063516000,Öxnevalla,57.364898,12.543377,1,,
9021014063517000,Broby,57.353558,12.499644,1,,
9021014063811000,Stationsgatan,57.507068,12.695103,1,,
9021014063815000,Nedre Kammarbergsvägen,57.514984,12.703437,1,,
9021014063823000,Bokbacken,57.504444,12.727286,1,,
9021014063833000,Herr Jonsgatan,57.503815,12.706926,1,,
9021014063834000,Annedalsvägen,57.505087,12.720101,1,,
9021014063835000,Ekebovägen,57.505531,12.725282,1,,
9021014063838000,Gårdaslättsvägen,57.546825,12.768318,1,,
9021014063845000,Älekulla,57.344661,12.727979,1,,
9021014063848000,Ubbhults kapell,57.592045,12.379351,1,,
9021014063849000,Oljanäs,57.598880,12.390425,1,,
9021014063850000,Nordhult,57.606803,12.404691,1,,
9021014063851000,Hultet,57.611389,12.419283,1,,
9021014063852000,Nödinge storegård,57.485462,12.522853,1,,
9021014063864000,Ängsskolan,57.489429,12.639229,1,,
9021014063897000,Hästebacka,57.605218,12.283527,1,,
9021014063898000,Dammet,57.604069,12.313446,1,,
9021014063899000,Flygsnäs,57.607247,12.370086,1,,
9021014063900000,Hägnen,57.610164,12.383337,1,,
9021014063901000,Öresjö,57.577304,12.374857,1,,
9021014063902000,Ubbhultskolan,57.593523,12.381705,1,,
9021014063903000,Sätilaskolan,57.539218,12.433830,1,,
9021014063920000,Greppholmen,57.484680,12.824849,1,,
9021014063979000,Horred kyrka,57.353609,12.466222,1,,
9021014063998000,Helsjön,57.367389,12.403798,1,,
9021014063999000,Letebo,57.368795,12.419716,1,,
9021014065401000,Mogaskolan,57.493062,13.117444,1,,
9021014065403000,Erikslund,57.250579,13.060387,1,,
9021014065405000,Hylte,57.427853,13.067824,1,,
9021014065406000,Skäremosjön,57.335586,13.186153,1,,
9021014065407000,Ängelholm,57.337359,13.205772,1,,
9021014065408000,Gullskog,57.386249,13.081128,1,,
9021014065409000,Månsagården,57.399837,13.091353,1,,
9021014065410000,Kungseken,57.411436,13.104402,1,,
9021014065411000,Bullsäng,57.416975,13.113641,1,,
9021014065412000,Backen,57.429777,13.130440,1,,
9021014065413000,Assmebro,57.438451,13.139744,1,,
9021014065414000,Ingrid Persgården,57.439437,13.129264,1,,
9021014065422000,Hagavägen,57.423872,12.953411,1,,
9021014065423000,Lindhult,57.410226,12.912466,1,,
9021014065501000,Björnhallen,57.490474,12.886061,1,,
9021014065502000,Slättäng,57.500898,12.914167,1,,
9021014065503000,Reaskäl,57.489841,12.957780,1,,
9021014065504000,Redslareds kyrka,57.488118,12.995467,1,,
9021014065505000,Ebbarp,57.496427,13.083727,1,,
9021014065506000,Grimstorp,57.482298,13.045399,1,,
9021014065507000,Kättarp,57.240190,13.094326,1,,
9021014065508000,Karlsberg,57.269779,13.115851,1,,
9021014065509000,Klägghult,57.273201,13.118131,1,,
9021014065601000,Ringestenavägen,57.513965,13.109321,1,,
9021014065602000,Boråsvägen,57.503486,13.110932,1,,
9021014065603000,Kommunhuset,57.498902,13.111419,1,,
9021014065604000,Karolinelund,57.498700,13.093822,1,,
9021014065605000,Svenljunga bussterminal,57.495249,13.108704,1,,
9021014065606000,Klockaregården,57.495764,13.117288,1,,
9021014065607000,Moga,57.483967,13.116110,1,,
9021014065608000,Änglarp,57.465723,13.112747,1,,
9021014065611000,Torstorp,57.492655,13.125140,1,,
9021014065612000,Stenstorpet,57.485108,13.138473,1,,
9021014065613000,Bäckagärde,57.482808,13.147031,1,,
9021014065614000,Hagadamm,57.493197,12.949750,1,,
9021014065616000,Axelfors bro,57.442576,13.097076,1,,
9021014065617000,Mjöbäck kyrka,57.310515,12.879764,1,,
9021014065619000,Kilagården,57.472963,13.110873,1,,
9021014065620000,Hyrsås,57.500678,12.924244,1,,
9021014065621000,Ljungåsen,57.352290,12.879317,1,,
9021014065702000,Åstarp,57.463189,13.179969,1,,
9021014065703000,Talleröd,57.464873,13.204045,1,,
9021014065704000,Strömsfors,57.466863,13.216987,1,,
9021014065705000,Bratteborg,57.469283,13.235762,1,,
9021014065706000,Skog,57.477897,13.160173,1,,
9021014065801000,Sågbacken,57.625789,13.096764,1,,
9021014065802000,Lockryd,57.614733,13.115608,1,,
9021014065803000,Åsendal,57.621638,13.131695,1,,
9021014065804000,Hillareds kyrka,57.626875,13.145628,1,,
9021014065806000,Bygdegården,57.623609,13.145912,1,,
